id,name,trafficType,municipality,county,roadCategory,road_ref,lat,lon,YADTV_2019,YoY_ratio,YoY_bins
02489V121427,VOLLEVATN,VEHICLE,Kristiansand,Agder,F,FV452 S1D1 m246,58.166603,8.033386,10489.0,1.07,3) -10%...+10%
56100V804816,RAMPE SØRÅS MOT HOP,VEHICLE,Bergen,Vestland,E,EV39 S78D1 m6434 KD3 m172,60.325803,5.337152,3466.0,0.98,3) -10%...+10%
03119V886010,STRAND N.,VEHICLE,Sortland,Nordland,F,FV82 S8D1 m302,68.709501,15.441047,2453.0,1.06,3) -10%...+10%
03486V319647,ØLEN/ETNE,VEHICLE,Vindafjord,Rogaland,E,EV134 S4D1 m17916,59.623114,5.886108,3976.0,1.15,4) +10%...+25%
00030V705190,MATRAND S,VEHICLE,Eidskog,Innlandet,R,RV2 S2D1 m4362,60.020618,12.113421,6472.0,0.57,1) <-25%
08162V578326,Elberg,VEHICLE,Levanger,Trøndelag,F,FV6878 S1D1 m427,63.748076,11.314128,2878.0,1.07,3) -10%...+10%
90304V1787932,STEINE,VEHICLE,Gausdal,Innlandet,F,FV255 S2D1 m11006,61.219865,10.254452,4498.0,1.08,3) -10%...+10%
80982V249217,Spjelkavik N.,VEHICLE,Ålesund,Møre og Romsdal,F,FV5948 S3D1 m381,62.462694,6.356163,8867.0,1.26,5) >+25%
29614V805708,SOTRABRUA VEST,VEHICLE,Øygarden,Vestland,R,RV555 S1D1 m11739,60.372022,5.155573,27941.0,1.01,3) -10%...+10%
02087V625292,EV 18 V/ MASTEMYR,VEHICLE,Oslo,Oslo,E,EV18 S56D1 m8647,59.828033,10.777597,16297.0,0.96,3) -10%...+10%
99100B1687283,Menstad sykkeltellepunkt,BICYCLE,Skien,Vestfold og Telemark,F,FV32 S8D1 m316,59.171914,9.643459,128.0,0.91,3) -10%...+10%
11101B1800681,Garpa - sykkel,BICYCLE,Verdal,Trøndelag,F,FV757 S1D320 m130,63.795114,11.494511,152.0,0.43,1) <-25%
87780V2518835,KNAPPETUNNELEN-BERGEN,VEHICLE,Bergen,Vestland,F,FV557 S1D1 m8960,60.366044,5.251379,4782.0,0.97,3) -10%...+10%
70741V384496,NAUSTDALSTUNNELEN,VEHICLE,Sunnfjord,Vestland,R,RV5 S15D1 m3552,61.535879,5.709482,2209.0,1.27,5) >+25%
05960V384024,REED VEST,VEHICLE,Gloppen,Vestland,E,EV39 S51D1 m9680,61.739454,6.390419,2347.0,1.09,3) -10%...+10%
09726V248991,Drivabrua,VEHICLE,Sunndal,Møre og Romsdal,F,FV62 S7D1 m9725,62.672637,8.553223,5927.0,1.02,3) -10%...+10%
10537V1125836,Andsvatnet v/værstasjon,VEHICLE,Sørreisa,Troms og Finnmark,F,FV86 S1D1 m10420,69.091782,18.296975,1028.0,1.04,3) -10%...+10%
71197B2165753,VESSØYVEIEN SYKKEL,BICYCLE,Grimstad,Agder,F,FV420 S7D1 m4551,58.335011,8.588505,150.0,1.11,4) +10%...+25%
86207V319742,Lagårdsveien,VEHICLE,Stavanger,Rogaland,F,FV44 S18D1 m5537,58.959297,5.739476,9992.0,1.03,3) -10%...+10%
64407V2100984,STEINFELT,VEHICLE,Nordre Follo,Viken,F,FV152 S6D1 m4956,59.759858,10.81679,7692.0,1.2,4) +10%...+25%
30961B1175469,STENMALEN-SYKKEL,BICYCLE,Tønsberg,Vestfold og Telemark,F,FV325 S1D1 m1784,59.27665,10.411814,382.0,0.97,3) -10%...+10%
53749B1700621,TUNEVANNET SYKKEL,BICYCLE,Sarpsborg,Viken,F,FV118 S5D50 m861,59.292846,11.084058,94.0,0.96,3) -10%...+10%
58272V2583663,Granstunnelen sørgående,VEHICLE,Gran,Innlandet,R,RV4 S9D1 m9529,60.356394,10.583513,3929.0,1.11,4) +10%...+25%
21565V1060643,JORA,VEHICLE,Dovre,Innlandet,E,EV136 S17D1 m13734,62.087884,9.104046,3015.0,1.08,3) -10%...+10%
27436V2172082,HANEKLEIV SYD,VEHICLE,Holmestrand,Vestfold og Telemark,E,EV18 S43D1 m5301,59.551896,10.179854,27260.0,1.12,4) +10%...+25%
63779V443654,SIKTA HEGGEDAL,VEHICLE,Asker,Viken,F,FV167 S2D1 m2854,59.801257,10.445205,13228.0,1.09,3) -10%...+10%
88029V1060188,JØRSTADMOEN,VEHICLE,Lillehammer,Innlandet,F,FV253 S1D1 m6375,61.149678,10.388743,1285.0,1.1,3) -10%...+10%
80565B1689290,Nenset sykkeltellepunkt,BICYCLE,Skien,Vestfold og Telemark,R,RV36 S2D100 m1823,59.168377,9.634257,182.0,0.88,2) -25%...+10%
30384V971782,TRONSTAD,VEHICLE,Indre Østfold,Viken,F,FV128 S8D1 m2981,59.616764,11.051502,4514.0,1.07,3) -10%...+10%
22500V805651,HOVLAND,VEHICLE,Ullensvang,Vestland,R,RV13 S28D1 m9641,60.242933,6.619769,1398.0,1.08,3) -10%...+10%
73380V121327,Rampe mot Prestheia,VEHICLE,Kristiansand,Agder,E,EV18 S1D1 m5911 KD3 m82,58.161539,8.019593,5359.0,1.07,3) -10%...+10%
56374V705257,SØNSTERUD S,VEHICLE,Åsnes,Innlandet,F,FV206 S2D1 m5427,60.654613,12.054362,2166.0,1.02,3) -10%...+10%
24783B2045151,Orstad sykkel- begge retn.,BICYCLE,Klepp,Rogaland,F,FV505 S3D120 m1243,58.798377,5.72743,108.0,1.1,3) -10%...+10%
12288V249204,Valgermo,VEHICLE,Ålesund,Møre og Romsdal,F,FV522 S1D1 m180,62.479464,6.864239,687.0,1.06,3) -10%...+10%
53155V1665289,RULLESTADTUNNELEN,VEHICLE,Etne,Vestland,E,EV134 S9D1 m4491,59.882403,6.467232,1814.0,1.15,4) +10%...+25%
97687V72808,Horg,VEHICLE,Melhus,Trøndelag,E,EV6 S70D1 m7539,63.138462,10.254719,9476.0,1.22,4) +10%...+25%
59048V2545015,RÅKEN ENEBAKK,VEHICLE,Enebakk,Viken,F,FV155 S2D1 m4366,59.739362,11.008667,4299.0,1.07,3) -10%...+10%
99525V384515,NADDVIK,VEHICLE,Årdal,Vestland,F,FV53 S7D1 m1015,61.188238,7.621573,1005.0,1.16,4) +10%...+25%
02688V704997,NSB V/NAMNÅ SØR,VEHICLE,Grue,Innlandet,F,FV2056 S1D1 m116,60.491064,12.078467,793.0,1.03,3) -10%...+10%
27227V885156,Trældaltunnelen,VEHICLE,Narvik,Nordland,E,EV10 S32D1 m3266,68.475677,17.589289,1097.0,0.29,1) <-25%
46784V705222,INNBYGDA S,VEHICLE,Trysil,Innlandet,F,FV26 S4D1 m4650,61.307591,12.258491,3116.0,1.13,4) +10%...+25%
72741V1811592,DALKRYSSET AVRAMPE,VEHICLE,Ullensaker,Viken,E,EV6 S24D1 m2172 KD3 m250,60.255177,11.179484,563.0,1.13,4) +10%...+25%
78805V2347241,REVET,VEHICLE,Larvik,Vestfold og Telemark,R,RV400 S1D1 m309,59.041197,10.055649,2963.0,0.81,2) -25%...+10%
21381V2554057,JAREN,VEHICLE,Indre Østfold,Viken,E,EV18 S62D1 m4236,59.622342,10.99694,14945.0,0.93,3) -10%...+10%
14551V705197,NORDSTUMOEN S,VEHICLE,Stor-Elvdal,Innlandet,R,RV3 S12D1 m9551,61.569679,11.007197,3173.0,1.12,4) +10%...+25%
71241V2460301,Kong Håkon 5.s gt Nordgående,VEHICLE,Oslo,Oslo,R,RV162 S1D1 m836,59.905889,10.761544,12213.0,0.94,3) -10%...+10%
18523V2282344,Ørbekk Nordgående Rampe,VEHICLE,Eidsvoll,Viken,E,EV6 S26D1 m1421 KD2 m71,60.414391,11.24177,135.0,1.28,5) >+25%
19690V804744,NYGÅRDST.SENTR-ÅSAN,VEHICLE,Bergen,Vestland,E,EV16 S1D1 m467,60.38464,5.335779,2572.0,1.23,4) +10%...+25%
92559V248993,Geiranger Utsikten,VEHICLE,Stranda,Møre og Romsdal,F,FV63 S3D1 m7490,62.093852,7.226502,716.0,1.0,3) -10%...+10%
38240V705263,SANDSTAD S,VEHICLE,Grue,Innlandet,F,FV210 S4D1 m7923,60.458898,12.017158,1247.0,1.03,3) -10%...+10%
62963V1060678,TOSO ØST,VEHICLE,Jevnaker,Viken,E,EV16 S51D1 m1995,60.249378,10.425873,9356.0,1.13,4) +10%...+25%
01622V578649,Åsen,VEHICLE,Levanger,Trøndelag,F,FV753 S1D1 m160,63.607408,11.04035,2039.0,0.93,3) -10%...+10%
69193V248908,Brusdalen,VEHICLE,Ålesund,Møre og Romsdal,E,EV39 S32D1 m3462,62.483671,6.471878,11390.0,1.19,4) +10%...+25%
00492V443603,OSLO GRENSE,VEHICLE,Bærum,Viken,F,FV160 S1D1 m5,59.926714,10.625671,10698.0,1.17,4) +10%...+25%
17975V1820899,KIRKENÆR S,VEHICLE,Grue,Innlandet,R,RV2 S8D1 m3119,60.426973,12.043734,3414.0,0.91,3) -10%...+10%
10763V885364,SORTLAND N,VEHICLE,Sortland,Nordland,F,FV820 S1D1 m1098,68.71609,15.409199,3794.0,1.06,3) -10%...+10%
29403V625517,VATERLANDTUNNELEN,VEHICLE,Oslo,Oslo,R,RV162 S1D1 m2984,59.916034,10.749144,13106.0,1.14,4) +10%...+25%
43264V886007,R80 Hunstadmoen,VEHICLE,Bodø,Nordland,R,RV80 S5D1 m4093,67.27834,14.517631,17646.0,1.24,4) +10%...+25%
63432V319869,SOLA N. ved Arabergv.,VEHICLE,Sola,Rogaland,F,FV510 S2D1 m6281,58.890928,5.645482,13690.0,0.94,3) -10%...+10%
35978B1700571,Tune kirke nord,BICYCLE,Sarpsborg,Viken,F,FV118 S5D90 m45,59.292626,11.084066,20.0,0.94,3) -10%...+10%
86702V971481,HABORNVEIEN,VEHICLE,Fredrikstad,Viken,R,RV22 S1D1 m2692,59.204152,10.976908,9824.0,1.13,4) +10%...+25%
92382V72805,Berkåk,VEHICLE,Rennebu,Trøndelag,E,EV6 S65D1 m7499,62.808197,10.032373,5224.0,1.29,5) >+25%
72111V2038086,BOGSRUD AVRAMPE,VEHICLE,Eidsvoll,Viken,E,EV6 S25D1 m3298 KD1 m438,60.330553,11.19148,1039.0,0.96,3) -10%...+10%
80669V444288,Brynsv v/Levre,VEHICLE,Bærum,Viken,F,FV164 S2D1 m1800,59.905406,10.513921,7598.0,1.22,4) +10%...+25%
24127V1175846,KJELLE NORD,VEHICLE,Tønsberg,Vestfold og Telemark,F,FV308 S2D1 m324,59.28952,10.391954,15773.0,1.08,3) -10%...+10%
35551V521381,Skilrud,VEHICLE,Notodden,Vestfold og Telemark,E,EV134 S38D1 m7375,59.571427,9.201552,8209.0,1.05,3) -10%...+10%
04525V625637,Ø.Akersvei rampe mot Hvam,VEHICLE,Oslo,Oslo,E,EV6 S17D1 m7291 KD2 m50,59.948419,10.946888,5963.0,0.98,3) -10%...+10%
96529V885935,Skjellesvikskaret trafikk,VEHICLE,Narvik,Nordland,E,EV6 S157D1 m9124,68.256355,16.395288,439.0,1.31,5) >+25%
90528V249433,Reknes Stadion,VEHICLE,Molde,Møre og Romsdal,F,FV537 S1D1 m1639,62.734052,7.146946,4591.0,1.23,4) +10%...+25%
91460V1665980,LANGBAKK BRU RV2,VEHICLE,Ullensaker,Viken,E,EV16 S58D1 m8833,60.115884,11.277407,11544.0,1.0,3) -10%...+10%
63083V2680826,Martineåsen syd sørgående,VEHICLE,Larvik,Vestfold og Telemark,E,EV18 S31D1 m10307,59.061674,9.99652,8193.0,0.97,3) -10%...+10%
30552V444220,LEIRELVA BRU,VEHICLE,Lillestrøm,Viken,E,EV6 S20D1 m4866,60.029546,11.096486,62049.0,0.93,3) -10%...+10%
25719V1763349,RAVNEHEITUNNELEN,VEHICLE,Farsund,Agder,F,FV465 S2D1 m1547,58.121508,6.772744,1196.0,1.15,4) +10%...+25%
79722V971837,DYREVEIEN,VEHICLE,Moss,Viken,F,FV1064 S1D1 m4160,59.414502,10.661491,3596.0,1.03,3) -10%...+10%
88780V2282345,Ørbekk Sørgående rampe,VEHICLE,Eidsvoll,Viken,E,EV6 S26D1 m1421 KD3 m354,60.414411,11.240639,105.0,1.31,5) >+25%
94231V705137,GJELTEN BRU,VEHICLE,Alvdal,Innlandet,F,FV2228 S2D1 m7988,62.130965,10.568998,1147.0,1.0,3) -10%...+10%
84325V384020,BOGSTUNNELEN,VEHICLE,Høyanger,Vestland,E,EV39 S62D1 m4894,61.17634,5.774792,1977.0,1.21,4) +10%...+25%
29293V249601,Rotsethorntunnelen,VEHICLE,Volda,Møre og Romsdal,E,EV39 S40D1 m4294,62.122076,6.098191,2909.0,1.24,4) +10%...+25%
42289V1126309,GANSÅS,VEHICLE,Harstad,Troms og Finnmark,R,RV83 S3D1 m608,68.782364,16.550398,16322.0,1.04,3) -10%...+10%
64040V320581,E39 / Somaveien,VEHICLE,Sandnes,Rogaland,E,EV39 S101D1 m2650,58.868373,5.713416,58620.0,1.05,3) -10%...+10%
21801V72158,Brattørbrua,VEHICLE,Trondheim,Trøndelag,E,EV6 S75D140 m187,63.434645,10.40504,7883.0,1.08,3) -10%...+10%
66320V249614,Brattvåg N.,VEHICLE,Ålesund,Møre og Romsdal,F,FV659 S2D1 m2555,62.606934,6.408003,1652.0,1.2,4) +10%...+25%
31429V2791530,Granfoss rampe vest 2,VEHICLE,Oslo,Oslo,R,RV150 S2D1 m7624 KD1 m265,59.91967,10.631222,1943.0,1.14,4) +10%...+25%
64284V705207,BRANDVAL N,VEHICLE,Kongsvinger,Innlandet,R,RV2 S7D1 m699,60.323528,12.018825,3077.0,0.92,3) -10%...+10%
55622V384514,BRENNBORG,VEHICLE,Årdal,Vestland,F,FV53 S5D1 m4985,61.272089,7.765721,2419.0,1.11,4) +10%...+25%
94360V72364,Momyra,VEHICLE,Åfjord,Trøndelag,F,FV715 S14D1 m2930,64.097167,10.52493,557.0,0.96,3) -10%...+10%
43803V249522,Flåvik,VEHICLE,Ørsta,Møre og Romsdal,E,EV39 S37D1 m6703,62.270102,5.992089,2491.0,1.19,4) +10%...+25%
40830V805015,LAKSEVÅG-PUD.BRO,VEHICLE,Bergen,Vestland,F,FV584 S1D1 m3009 KD3 m80,60.382003,5.315859,2720.0,0.5,1) <-25%
12135V1126309,KANEBOGEN KVU,VEHICLE,Harstad,Troms og Finnmark,R,RV83 S2D1 m9459,68.775557,16.562984,13131.0,1.06,3) -10%...+10%
09389V443429,OSLOFJORDTUNNELEN,VEHICLE,Frogn,Viken,E,EV134 S49D1 m4090,59.691413,10.655631,10346.0,0.94,3) -10%...+10%
57627V578676,Skagakorsen mot Hofles,VEHICLE,Nærøysund,Trøndelag,F,FV769 S8D1 m5756,64.823313,11.497614,775.0,0.93,3) -10%...+10%
35340V1175843,NAPPERØD,VEHICLE,Sandefjord,Vestfold og Telemark,F,FV305 S2D1 m3118,59.177066,10.176081,3180.0,1.05,3) -10%...+10%
29481V384100,INDRE HAFSLO,VEHICLE,Luster,Vestland,F,FV55 S10D1 m4898,61.345065,7.262466,2192.0,1.05,3) -10%...+10%
34095V22185,VEGUSDAL OST,VEHICLE,Birkenes,Agder,F,FV42 S7D1 m21257,58.58352,8.164232,813.0,1.25,4) +10%...+25%
33443B2542097,KANALBRUA-SYKKEL,BICYCLE,Tønsberg,Vestfold og Telemark,F,FV308 S3D1 m2353,59.261823,10.416349,306.0,0.98,3) -10%...+10%
17096V443647,Snarøyveien,VEHICLE,Bærum,Viken,F,FV166 S1D1 m959,59.900519,10.625454,18506.0,0.92,3) -10%...+10%
00203V444270,SVÆRSVANN,VEHICLE,Nordre Follo,Viken,F,FV155 S1D1 m31,59.81748,10.890785,4717.0,1.1,3) -10%...+10%
11315V1685366,PALMAFOSSEN VEST,VEHICLE,Voss,Vestland,R,RV13 S35D1 m6984,60.635984,6.464408,9405.0,1.11,4) +10%...+25%
00782V443727,Vestby kirke,VEHICLE,Vestby,Viken,F,FV1356 S2D1 m5652,59.602311,10.734114,6986.0,1.03,3) -10%...+10%
02677V885310,ULVSVÅG VEST,VEHICLE,Hamarøy,Nordland,F,FV81 S1D1 m254,68.114523,15.860381,610.0,1.16,4) +10%...+25%
20226V1060660,LOM VEST,VEHICLE,Lom,Innlandet,R,RV15 S6D1 m1884,61.846904,8.537193,2345.0,1.08,3) -10%...+10%
07732V1993842,LOMOEN (FV319),VEHICLE,Nord-Fron,Innlandet,F,FV2532 S7D1 m5150,61.585668,9.717747,2560.0,1.05,3) -10%...+10%
88356V72157,Jernbanebrua,VEHICLE,Trondheim,Trøndelag,F,FV6692 S1D1 m243,63.435497,10.400043,6028.0,1.02,3) -10%...+10%
02754V2813475,VANGBERGSTUNNELEN,VEHICLE,Stryn,Vestland,F,FV60 S15D1 m2122,61.865343,6.736325,1556.0,1.28,5) >+25%
93189V320582,E39 / Oscar Wistingsgt.,VEHICLE,Stavanger,Rogaland,E,EV39 S100D1 m10011,58.948112,5.722435,48815.0,1.0,3) -10%...+10%
57587V805035,STORAVATN (RV555 RAMPE 14),VEHICLE,Bergen,Vestland,R,RV555 S1D1 m8311 KD1 m275,60.370658,5.214055,8035.0,1.02,3) -10%...+10%
99115V249438,Gammelseterlia,VEHICLE,Molde,Møre og Romsdal,F,FV538 S1D1 m6556,62.766593,7.276438,4656.0,1.1,3) -10%...+10%
15322V384480,FJELLVEGEN,VEHICLE,Sunnfjord,Vestland,E,EV39 S58D1 m953,61.44958,5.855029,13304.0,1.14,4) +10%...+25%
77570B384357,HAVRENESVEGEN (SYKKEL),BICYCLE,Kinn,Vestland,K,KV545 S2D1 m40,61.598202,5.016999,249.0,1.07,3) -10%...+10%
30236V121479,SELAND,VEHICLE,Sirdal,Agder,F,FV468 S1D1 m3391,58.69304,6.727426,731.0,1.09,3) -10%...+10%
29852V2460300,Kong Håkon 5.s gt Sydgående,VEHICLE,Oslo,Oslo,R,RV162 S1D1 m1055,59.905927,10.761306,11898.0,0.99,3) -10%...+10%
85205V2486785,FOLKEDALSTUNNELEN,VEHICLE,Voss,Vestland,F,FV79 S1D1 m7217,60.491088,6.654255,962.0,1.09,3) -10%...+10%
59773V885809,Sørvågen,VEHICLE,Øksnes,Nordland,F,FV7674 S1D1 m15855,68.910202,15.231999,1022.0,1.12,4) +10%...+25%
40190V319527,SOKN,VEHICLE,Stavanger,Rogaland,E,EV39 S98D1 m5987,59.05642,5.663593,9905.0,1.18,4) +10%...+25%
08771V521381,SPITEN,VEHICLE,Notodden,Vestfold og Telemark,E,EV134 S38D1 m9994,59.561181,9.242248,13578.0,1.03,3) -10%...+10%
59274V521379,Gjerde,VEHICLE,Kragerø,Vestfold og Telemark,E,EV18 S23D1 m3844,58.924963,9.312915,8500.0,1.13,4) +10%...+25%
37724V1707378,RISDAL,VEHICLE,Grimstad,Agder,E,EV18 S9D1 m1980,58.33707,8.556081,16827.0,1.11,4) +10%...+25%
72355V444049,DØLIHAGEN BUSSHOLDE,VEHICLE,Ullensaker,Viken,F,FV1496 S6D1 m3071,60.137746,11.173287,12851.0,0.99,3) -10%...+10%
50788V1060694,LINFLÅ,VEHICLE,Gausdal,Innlandet,F,FV255 S3D1 m1222,61.224885,10.198707,2980.0,1.02,3) -10%...+10%
99593V72151,KORPORALS BRU,VEHICLE,Midtre Gauldal,Trøndelag,E,EV6 S68D1 m446,62.983148,10.237697,6070.0,1.28,5) >+25%
60585V521136,Straumekrysset vest,VEHICLE,Drangedal,Vestfold og Telemark,F,FV38 S5D1 m10701,59.046048,9.126473,2171.0,1.06,3) -10%...+10%
30887V319846,Eigerøy bru,VEHICLE,Eigersund,Rogaland,R,RV426 S2D1 m1942,58.461917,5.979794,7204.0,1.0,3) -10%...+10%
65271V443150,Vestby syd ny,VEHICLE,Vestby,Viken,E,EV6 S10D1 m6354,59.605903,10.736007,41510.0,0.89,2) -25%...+10%
45653V2518816,KNAPPETUNNELEN NORD-SANDEIDET,VEHICLE,Bergen,Vestland,F,FV557 S1D1 m4887 KD1 m265,60.336639,5.263606,4877.0,1.13,4) +10%...+25%
01036V72288,STORMYRA N,VEHICLE,Heim,Trøndelag,F,FV680 S17D1 m8390,63.212572,9.017862,1546.0,1.01,3) -10%...+10%
93341V248912,Vestnes Kirke,VEHICLE,Vestnes,Møre og Romsdal,E,EV39 S26D1 m2912,62.628548,7.080731,6441.0,1.1,3) -10%...+10%
73689V319876,Sundekrossen,VEHICLE,Stavanger,Rogaland,R,RV509 S2D1 m6972,58.962127,5.614648,13373.0,1.1,3) -10%...+10%
18137V1060663,NORDRUM (FV27),VEHICLE,Ringebu,Innlandet,F,FV27 S1D1 m1803,61.55127,10.089557,1410.0,1.17,4) +10%...+25%
00199V578643,Eidet bru mot Sandvika,VEHICLE,Lierne,Trøndelag,F,FV74 S8D1 m4621,64.441745,13.627469,754.0,0.65,1) <-25%
22576V805808,ØVREGATEN,VEHICLE,Bergen,Vestland,F,FV5342 S1D1 m433,60.398059,5.324827,3893.0,0.45,1) <-25%
13322V443660,LOMMEDALSVEIEN,VEHICLE,Bærum,Viken,F,FV168 S2D1 m2974,59.937983,10.501818,12824.0,1.11,4) +10%...+25%
10174V2460044,TRETTEN BRU VEST,VEHICLE,Øyer,Innlandet,F,FV254 S2D1 m7738,61.309642,10.295715,1441.0,1.26,5) >+25%
42608V249021,Langveien,VEHICLE,Kristiansund,Møre og Romsdal,R,RV70 S19D1 m2847,63.115467,7.725498,11839.0,1.14,4) +10%...+25%
29015V885202,E10 Moskenes x fergekai,VEHICLE,Moskenes,Nordland,E,EV10 S1D1 m4829,67.902522,13.041944,1395.0,1.0,3) -10%...+10%
04925V444232,Lysakerlokket,VEHICLE,Bærum,Viken,E,EV18 S54D1 m776,59.911891,10.633088,60543.0,0.94,3) -10%...+10%
02853V1665549,RV85 Gullesfjord Vest,VEHICLE,Kvæfjord,Troms og Finnmark,R,RV85 S4D1 m29,68.529212,15.764814,868.0,1.0,3) -10%...+10%
25132V805616,DANMARKSPLASS-ÅSANE,VEHICLE,Bergen,Vestland,E,EV39 S77D1 m7483,60.383487,5.335978,9062.0,1.15,4) +10%...+25%
56190V804815,SØRÅS/SENTRUM,VEHICLE,Bergen,Vestland,E,EV39 S78D1 m6311 KD5 m274,60.326124,5.336979,17205.0,0.94,3) -10%...+10%
05666V971546,RYGGE RÅDHUS,VEHICLE,Moss,Viken,F,FV119 S2D1 m523,59.40359,10.693805,5491.0,1.03,3) -10%...+10%
83708V384493,FRUDALSTUNNELEN,VEHICLE,Sogndal,Vestland,R,RV5 S9D1 m5722,61.375535,6.786308,1602.0,1.15,4) +10%...+25%
82860V885983,TORSVIKA,VEHICLE,Meløy,Nordland,F,FV17 S52D1 m2641,66.881544,13.666361,2145.0,1.03,3) -10%...+10%
52780V320689,Håland,VEHICLE,Randaberg,Rogaland,F,FV4560 S2D1 m1390,58.984062,5.628547,6999.0,1.22,4) +10%...+25%
26042V181058,LANDFALLØYA BRU SYD,VEHICLE,Drammen,Viken,F,FV2730 S1D1 m49,59.746912,10.163274,10240.0,1.08,3) -10%...+10%
54946V249000,Steen,VEHICLE,Rauma,Møre og Romsdal,F,FV64 S1D1 m5580,62.570978,7.782091,3919.0,1.12,4) +10%...+25%
85638V249090,Otrøy,VEHICLE,Molde,Møre og Romsdal,F,FV668 S4D1 m6112,62.699477,6.702853,1301.0,1.16,4) +10%...+25%
25694V2370584,Karmøytunnelen Hellevik,VEHICLE,Karmøy,Rogaland,F,FV554 S1D1 m634,59.319271,5.369854,4412.0,1.09,3) -10%...+10%
69803V121343,RAMPE FRA EG,VEHICLE,Kristiansand,Agder,E,EV18 S1D1 m1488 KD2 m602,58.153961,7.995469,1555.0,0.99,3) -10%...+10%
45892V886032,FRØSKELAND,VEHICLE,Sortland,Nordland,F,FV820 S2D1 m19,68.757333,15.136402,1204.0,1.07,3) -10%...+10%
95741V1125961,Gamnes v/værstasjon,VEHICLE,Karlsøy,Troms og Finnmark,F,FV863 S4D1 m8472,69.903035,19.473525,832.0,0.99,3) -10%...+10%
70836V249525,Flote,VEHICLE,Ålesund,Møre og Romsdal,E,EV39 S30D1 m2571,62.482661,6.645682,7521.0,1.19,4) +10%...+25%
78910V705216,STANGE Ø,VEHICLE,Stange,Innlandet,F,FV24 S9D1 m4202,60.722636,11.221132,5725.0,0.97,3) -10%...+10%
73391V704580,OPPHUS SKOLE,VEHICLE,Stor-Elvdal,Innlandet,R,RV3 S9D1 m4463,61.333684,11.255238,2844.0,1.13,4) +10%...+25%
25000V2252921,HOLMENE,VEHICLE,Sandefjord,Vestfold og Telemark,E,EV18 S36D1 m3046,59.25747,10.29535,33769.0,1.06,3) -10%...+10%
50043V885183,Trollvann Brøytestasjon,VEHICLE,Narvik,Nordland,E,EV10 S32D1 m10451,68.476449,17.742357,1156.0,0.22,1) <-25%
91169V1801368,KOLOBEKKEN SØR,VEHICLE,Stange,Innlandet,E,EV6 S29D1 m1325,60.649086,11.292924,13314.0,1.16,4) +10%...+25%
88478V22214,HISOYSTOMMEN,VEHICLE,Arendal,Agder,F,FV420 S4D1 m550,58.44143,8.741378,8727.0,0.92,3) -10%...+10%
89712V930408,Mehamn ved vegbom,VEHICLE,Gamvik,Troms og Finnmark,F,FV888 S6D1 m12301,71.015775,27.838878,282.0,1.05,3) -10%...+10%
88559V1685348,PALMAFOSSEN AUST,VEHICLE,Voss,Vestland,R,RV13 S35D1 m6872,60.635493,6.466188,6344.0,1.1,3) -10%...+10%
99246V443317,LYSAKERLOKKET KOLLEKTIV,VEHICLE,Bærum,Viken,E,EV18 S54D1 m257 KD6 m591,59.911744,10.633036,277.0,1.01,3) -10%...+10%
27549V971415,LUND,VEHICLE,Indre Østfold,Viken,R,RV22 S7D1 m4345,59.465998,11.37899,3965.0,1.02,3) -10%...+10%
13715V2721330,Sømmevågen,VEHICLE,Sola,Rogaland,R,RV509 S1D1 m3891,58.895764,5.641322,14988.0,0.8,2) -25%...+10%
82913V971429,KRÅKERØY BRU,VEHICLE,Fredrikstad,Viken,F,FV108 S1D90 m97,59.207855,10.93777,11427.0,1.0,3) -10%...+10%
08776V1175849,VRENGEN,VEHICLE,Færder,Vestfold og Telemark,F,FV308 S6D1 m94,59.170687,10.382385,5914.0,1.03,3) -10%...+10%
45059V705206,HOV N,VEHICLE,Kongsvinger,Innlandet,R,RV2 S5D1 m2975,60.219584,12.032015,5720.0,0.96,3) -10%...+10%
29591V705257,KJELLMYRA S,VEHICLE,Åsnes,Innlandet,F,FV206 S2D1 m2768,60.634926,12.02903,3215.0,1.02,3) -10%...+10%
23111V704635,BRENNERIROA V,VEHICLE,Løten,Innlandet,R,RV25 S4D1 m2452,60.82799,11.282685,10565.0,1.05,3) -10%...+10%
67354V21986,FV 171 SELDE,VEHICLE,Arendal,Agder,F,FV3534 S1D1 m2121,58.446085,8.703795,6336.0,1.1,3) -10%...+10%
95959B971385,JELØGATA SYKKEL,BICYCLE,Moss,Viken,R,RV19 S1D1 m3443,59.43385,10.65388,287.0,0.89,2) -25%...+10%
15903V180958,BJØRNSTAD N.,VEHICLE,Asker,Viken,F,FV165 S2D1 m6234,59.746323,10.435636,12028.0,1.08,3) -10%...+10%
38999V249046,Kvistad,VEHICLE,Ørsta,Møre og Romsdal,F,FV655 S4D1 m3974,62.194756,6.417394,808.0,1.21,4) +10%...+25%
47905V249548,Stranda,VEHICLE,Stranda,Møre og Romsdal,F,FV60 S6D1 m11590,62.303421,6.901482,1703.0,1.13,4) +10%...+25%
03093V886126,"Leknes, veg til fl",VEHICLE,Vestvågøy,Nordland,F,FV7616 S1D1 m13,68.155936,13.622944,2259.0,0.94,3) -10%...+10%
13278V121819,AUKLAND VEGSTASJON,VEHICLE,Kristiansand,Agder,F,FV478 S1D1 m1263,58.204951,7.90418,1425.0,1.02,3) -10%...+10%
33123V2258515,NATVALL SØR,VEHICLE,Sandefjord,Vestfold og Telemark,E,EV18 S33D1 m4732,59.13919,10.163279,27121.0,1.04,3) -10%...+10%
14570V320273,FORUSBEEN/RV44,VEHICLE,Stavanger,Rogaland,F,FV4526 S2D1 m65,58.89206,5.732815,9697.0,1.04,3) -10%...+10%
98403V578166,Grong mot Bergsmo,VEHICLE,Grong,Trøndelag,F,FV760 S2D1 m10135,64.465654,12.299438,2083.0,1.01,3) -10%...+10%
97841V805708,KOLLTVEITTUNNELEN,VEHICLE,Øygarden,Vestland,R,RV555 S1D1 m16428,60.349584,5.093154,19409.0,1.02,3) -10%...+10%
61523B971803,ST.HANSFJELLET SYKKEL,BICYCLE,Fredrikstad,Viken,K,KV26200 S1D60 m42,59.218978,10.93455,37.0,1.43,5) >+25%
41100V444019,Brånåsdalen,VEHICLE,Lillestrøm,Viken,F,FV1496 S1D1 m1444,59.989197,11.028682,8740.0,1.09,3) -10%...+10%
32375V72155,VÆRETUNNELEN,VEHICLE,Trondheim,Trøndelag,E,EV6 S77D1 m2898,63.423256,10.580723,20312.0,1.03,3) -10%...+10%
41273V805613,MOBERG V/LEKVEN,VEHICLE,Bjørnafjorden,Vestland,E,EV39 S81D1 m1308,60.170323,5.444252,8201.0,1.18,4) +10%...+25%
71595V971806,HVITSTEN,VEHICLE,Fredrikstad,Viken,R,RV22 S2D1 m7574,59.258374,11.059835,10029.0,1.17,4) +10%...+25%
54688V625212,Skullerud Hovedkjørefelt,VEHICLE,Oslo,Oslo,E,EV6 S15D1 m5271,59.862805,10.830739,66139.0,0.9,2) -25%...+10%
97054V2486454,Storsvingen,VEHICLE,Hammerfest,Troms og Finnmark,R,RV94 S6D1 m5887,70.654354,23.660931,6138.0,1.01,3) -10%...+10%
12374V2390267,Keiseråsen mot Rissa,VEHICLE,Indre Fosen,Trøndelag,F,FV720 S1D1 m30,63.568629,10.176672,782.0,1.02,3) -10%...+10%
88624V521109,Fv32 Rektor Ørns gate,VEHICLE,Skien,Vestfold og Telemark,F,FV32 S7D1 m750,59.213555,9.606761,12703.0,1.02,3) -10%...+10%
44656V72812,Elgeseter gate ved Abels gate,VEHICLE,Trondheim,Trøndelag,F,FV6690 S3D1 m1588,63.416654,10.397405,20978.0,1.07,3) -10%...+10%
07752V625591,Helsfyr rampe mot Alnabru,VEHICLE,Oslo,Oslo,E,EV6 S16D20 m2423 KD3 m33,59.911676,10.796609,7602.0,0.91,3) -10%...+10%
06362V2533432,BØRVENESTUNNELEN,VEHICLE,Kvam,Vestland,F,FV79 S5D1 m6610,60.369434,6.194035,3585.0,1.15,4) +10%...+25%
50934V1060690,KOLBU ØST (FV246),VEHICLE,Østre Toten,Innlandet,F,FV246 S1D1 m4898,60.655898,10.753453,3554.0,1.05,3) -10%...+10%
12515V805011,PUD.BRU - LAKSEVÅG,VEHICLE,Bergen,Vestland,F,FV584 S1D1 m3009 KD7 m25,60.382453,5.314394,3536.0,0.71,1) <-25%
89276B2803004,SIMO SYKKEL,BICYCLE,Fredrikstad,Viken,R,RV110 S3D1 m2706,59.225744,10.916166,74.0,2.37,5) >+25%
15504V444296,VALSPORTEN,VEHICLE,Lillestrøm,Viken,F,FV171 S3D1 m3606,60.005327,11.262128,6102.0,0.96,3) -10%...+10%
21648V249012,Gjøra,VEHICLE,Sunndal,Møre og Romsdal,R,RV70 S5D1 m1944,62.571287,9.137918,1125.0,1.09,3) -10%...+10%
90914V1885978,KNAPPETUN.  DOLVIK-STRAUME,VEHICLE,Bergen,Vestland,F,FV557 S1D1 m3847 KD1 m575,60.3249,5.271872,1527.0,0.97,3) -10%...+10%
50749V319525,BYHAUGTUNNELEN sør,VEHICLE,Stavanger,Rogaland,R,RV509 S3D30 m1704,58.971783,5.701042,22374.0,0.38,1) <-25%
85077V249627,Kjørsvik,VEHICLE,Hustadvika,Møre og Romsdal,F,FV664 S2D1 m2437,62.862774,7.014023,2192.0,1.12,4) +10%...+25%
71609V444217,Årungen,VEHICLE,Frogn,Viken,E,EV6 S12D1 m2550,59.686111,10.737092,41047.0,0.91,3) -10%...+10%
66745V249624,Eidemskaret,VEHICLE,Hustadvika,Møre og Romsdal,F,FV663 S2D1 m623,62.858782,7.129965,1591.0,1.01,3) -10%...+10%
88690B2639744,Gaustad Sykkel,BICYCLE,Oslo,Oslo,R,RV150 S2D155 m11,59.945748,10.712816,941.0,1.03,3) -10%...+10%
39215V320588,VATS,VEHICLE,Vindafjord,Rogaland,E,EV134 S4D1 m4613,59.569844,5.702694,4753.0,1.13,4) +10%...+25%
98370V249332,Rensvik Ø.,VEHICLE,Kristiansund,Møre og Romsdal,F,FV6096 S2D1 m7481,63.09824,7.8219,5052.0,1.07,3) -10%...+10%
19646V885990,TUV X RV812,VEHICLE,Bodø,Nordland,F,FV17 S58D1 m17955,67.217564,14.624327,1452.0,1.0,3) -10%...+10%
46507V886012,RISØYHAMN VEGST.,VEHICLE,Andøy,Nordland,F,FV82 S12D1 m479,68.98435,15.648162,1118.0,1.11,4) +10%...+25%
07878V384491,ERI,VEHICLE,Lærdal,Vestland,R,RV5 S1D1 m536,61.068986,7.500665,2988.0,1.13,4) +10%...+25%
58090V805313,LYDERHORNSVEI,VEHICLE,Bergen,Vestland,F,FV558 S1D1 m4320,60.376576,5.257317,1484.0,0.94,3) -10%...+10%
74376V2491855,E8 Skibotn (Borealis),VEHICLE,Storfjord,Troms og Finnmark,E,EV8 S9D1 m178,69.373416,20.289454,590.0,1.21,4) +10%...+25%
77749V249641,Sålåsundbrua,VEHICLE,Aure,Møre og Romsdal,F,FV680 S5D1 m153,63.206664,8.157601,765.0,1.13,4) +10%...+25%
06966B971804,RAKKESTADSVINGEN ØST SYKKEL,BICYCLE,Fredrikstad,Viken,F,FV130 S1D1 m164,59.207832,10.980974,107.0,0.98,3) -10%...+10%
17961V72812,Holtermanns veg nord for Bratsbergvegen,VEHICLE,Trondheim,Trøndelag,F,FV6690 S3D1 m2888,63.405157,10.397127,18989.0,2.05,5) >+25%
19632V1665341,Kåringen Vest,VEHICLE,Lødingen,Nordland,E,EV10 S23D1 m105,68.441636,16.007202,2246.0,1.0,3) -10%...+10%
60739V625530,"Grorud Stasjon 1,2,3,4",VEHICLE,Oslo,Oslo,R,RV163 S1D1 m6467,59.950602,10.88577,22683.0,1.1,3) -10%...+10%
35666V443378,UVESUND BRU,VEHICLE,Nes,Viken,E,EV16 S60D1 m3754,60.168682,11.47886,10256.0,0.9,2) -25%...+10%
13634B2721359,Sømmevågen 2 Sykkel,BICYCLE,Sola,Rogaland,R,RV509 S1D105 m161,58.895981,5.639606,243.0,0.8,2) -25%...+10%
96603V885224,HØYHOLM,VEHICLE,Vevelstad,Nordland,F,FV17 S37D1 m9517,65.656146,12.385972,294.0,0.96,3) -10%...+10%
56466V804740,TRENGEREIDTUNNELEN,VEHICLE,Bergen,Vestland,E,EV16 S4D1 m3215,60.429394,5.637662,5594.0,1.14,4) +10%...+25%
88157V885938,Ballangen sentrum,VEHICLE,Narvik,Nordland,E,EV6 S160D1 m5417,68.337321,16.824302,2313.0,1.18,4) +10%...+25%
63934V319531,Eikjekrysset sør,VEHICLE,Tysvær,Rogaland,E,EV39 S93D1 m6973,59.295274,5.488849,5239.0,1.23,4) +10%...+25%
89439V21823,HAREBAKKEN,VEHICLE,Arendal,Agder,F,FV410 S5D1 m10580,58.473787,8.748655,17158.0,0.9,2) -25%...+10%
06760V704724,RENA Ø,VEHICLE,Åmot,Innlandet,F,FV215 S1D1 m667,61.131935,11.376856,3400.0,1.07,3) -10%...+10%
28662B2604257,Anda sykkel-begge retn.,BICYCLE,Klepp,Rogaland,F,FV4466 S1D100 m782,58.775604,5.642737,110.0,0.92,3) -10%...+10%
71258V805748,KALFARBAKKEN,VEHICLE,Bergen,Vestland,F,FV585 S1D1 m7054,60.387905,5.343274,5614.0,1.04,3) -10%...+10%
13515V1175879,SLAGENDALEN,VEHICLE,Tønsberg,Vestfold og Telemark,F,FV3106 S1D1 m1275,59.284136,10.432945,2508.0,1.09,3) -10%...+10%
06871V443706,ORMELIA,VEHICLE,Eidsvoll,Viken,F,FV180 S1D1 m618,60.318674,11.140803,2848.0,0.77,2) -25%...+10%
19425V885198,STOREIDET,VEHICLE,Vestvågøy,Nordland,E,EV10 S7D1 m5070,68.134706,13.567853,8349.0,1.08,3) -10%...+10%
66328V1175856,GUNNESTAD,VEHICLE,Holmestrand,Vestfold og Telemark,F,FV313 S1D1 m6411,59.60003,10.210811,7411.0,1.0,3) -10%...+10%
09269V971425,BJØRKEBEKK,VEHICLE,Aremark,Viken,F,FV106 S1D1 m920,59.142809,11.765395,336.0,0.26,1) <-25%
93617V444043,Skibakk Kløfta,VEHICLE,Ullensaker,Viken,F,FV1488 S2D1 m3381,60.079471,11.147981,13096.0,1.05,3) -10%...+10%
25280V41723,Heimdalsvegen ved Esp,VEHICLE,Trondheim,Trøndelag,F,FV6682 S1D1 m1100,63.328545,10.325948,3502.0,0.98,3) -10%...+10%
77570V384357,HAVRENESVEGEN,VEHICLE,Kinn,Vestland,F,FV445 S1D1 m3282,61.598242,5.016912,4149.0,1.05,3) -10%...+10%
04939V804763,OSTERØY-TRENGEREID,VEHICLE,Bergen,Vestland,E,EV16 S3D1 m4892 KD1 m90,60.422027,5.537558,209.0,1.09,3) -10%...+10%
48950V704785,ÅSHØGDA,VEHICLE,Ringsaker,Innlandet,F,FV1786 S1D1 m3228,60.897616,10.787817,1335.0,1.2,4) +10%...+25%
96436B1688765,Klosterskogen sykkeltellepunkt,BICYCLE,Skien,Vestfold og Telemark,R,RV36 S2D100 m5036,59.187763,9.600905,130.0,0.84,2) -25%...+10%
72525V930309,LAKSEBYBUKT,VEHICLE,Vadsø,Troms og Finnmark,E,EV75 S8D1 m2727,70.088776,29.655777,2016.0,1.13,4) +10%...+25%
25258V521404,Sannerholt,VEHICLE,Nome,Vestfold og Telemark,R,RV36 S7D1 m276,59.291769,9.248973,3820.0,0.95,3) -10%...+10%
44003V705284,KORSLUND Ø,VEHICLE,Hamar,Innlandet,F,FV227 S2D1 m3408,60.84951,11.161205,2491.0,1.15,4) +10%...+25%
54608V320601,BERGE ØST,VEHICLE,Suldal,Rogaland,R,RV13 S14D1 m1996,59.473939,6.298016,1331.0,1.02,3) -10%...+10%
47140V625367,RV 4 Rødtvet,VEHICLE,Oslo,Oslo,R,RV4 S1D1 m4704,59.947857,10.85264,26511.0,1.13,4) +10%...+25%
90101V930271,VARANGERBOTN VEST,VEHICLE,Unjàrga-Nesseby,Troms og Finnmark,E,EV6 S234D1 m16310,70.1731,28.532778,1246.0,1.2,4) +10%...+25%
53810V2172079,BOLSTAD TUNNEL,VEHICLE,Holmestrand,Vestfold og Telemark,E,EV18 S44D1 m3638,59.604152,10.174541,26813.0,1.12,4) +10%...+25%
06966V971804,RAKKESTADSVINGEN ØST,VEHICLE,Fredrikstad,Viken,F,FV130 S1D1 m682,59.208606,10.989882,11794.0,0.87,2) -25%...+10%
07068V704846,IMERSLUND N,VEHICLE,Hamar,Innlandet,F,FV1796 S1D1 m700,60.81962,11.114411,2605.0,1.07,3) -10%...+10%
49425V320594,Jørpeland sør,VEHICLE,Strand,Rogaland,F,FV523 S1D1 m7968,59.014734,6.049257,4954.0,1.09,3) -10%...+10%
27069V885282,Nordvika v/Værstasjon,VEHICLE,Fauske,Nordland,R,RV80 S2D1 m3701,67.32927,15.173708,3717.0,1.1,3) -10%...+10%
31498V2574580,SALHUSVEIEN,VEHICLE,Bergen,Vestland,F,FV5300 S1D1 m43,60.471445,5.327028,7067.0,1.07,3) -10%...+10%
66990V444219,HVAM NORD,VEHICLE,Lillestrøm,Viken,E,EV6 S19D1 m2360,59.989594,11.028942,69894.0,0.93,3) -10%...+10%
52209V971422,PRESTEBAKKE TPK,VEHICLE,Halden,Viken,F,FV884 S1D1 m11208,58.99018,11.540663,814.0,0.55,1) <-25%
09047V805597,VINJE VEST,VEHICLE,Voss,Vestland,E,EV16 S12D1 m8062,60.785713,6.499605,4011.0,1.1,3) -10%...+10%
10437V704575,KALSVEEN S,VEHICLE,Stange,Innlandet,R,RV3 S1D1 m976,60.709205,11.279632,6487.0,0.99,3) -10%...+10%
86261V705105,SPUTNESET,VEHICLE,Rendalen,Innlandet,F,FV237 S6D1 m14807,61.688363,11.217833,626.0,1.15,4) +10%...+25%
91490V1125788,E8 Gardeborgbakken,VEHICLE,Storfjord,Troms og Finnmark,E,EV8 S10D1 m11937,69.17881,20.745145,713.0,1.29,5) >+25%
77209V1060620,FRYA,VEHICLE,Sør-Fron,Innlandet,E,EV6 S46D1 m6089,61.547985,10.039372,6884.0,1.12,4) +10%...+25%
01141V319864,BORE,VEHICLE,Klepp,Rogaland,F,FV507 S1D1 m115,58.791215,5.595407,2685.0,0.88,2) -25%...+10%
77883V625445,Gaustad rampe mot Ullevål,VEHICLE,Oslo,Oslo,R,RV150 S2D1 m1558 KD4 m128,59.945911,10.712904,6706.0,1.09,3) -10%...+10%
98841V885940,BEISFJORD BRU,VEHICLE,Narvik,Nordland,E,EV6 S164D1 m4153,68.409181,17.426214,9608.0,1.01,3) -10%...+10%
83740V384360,KANALEN FLORØ,VEHICLE,Kinn,Vestland,F,FV5704 S1D1 m4979,61.594493,5.052658,2426.0,1.08,3) -10%...+10%
81885V2574569,ÅSAMYRANE,VEHICLE,Bergen,Vestland,F,FV578 S2D1 m413,60.471455,5.328995,14668.0,1.12,4) +10%...+25%
20191V705201,MOTRØA S,VEHICLE,Tynset,Innlandet,R,RV3 S21D1 m9018,62.280434,10.72408,3915.0,1.09,3) -10%...+10%
95375V121638,VOLLAN,VEHICLE,Lyngdal,Agder,F,FV472 S1D10 m1214,58.131945,7.03742,2475.0,1.05,3) -10%...+10%
87557V180903,ELGSKAUÅSTUNNELEN,VEHICLE,Asker,Viken,E,EV134 S47D1 m2894,59.722724,10.446323,11673.0,0.97,3) -10%...+10%
27789V885230,HELGELANDSBRU ØST,VEHICLE,Alstahaug,Nordland,F,FV17 S41D1 m12331,66.023665,12.683523,2561.0,1.06,3) -10%...+10%
73168V705238,ELVÅL S,VEHICLE,Rendalen,Innlandet,F,FV30 S25D1 m560,61.928452,11.056692,759.0,1.04,3) -10%...+10%
14487V2479113,Fv 6 Vestby storsenter,VEHICLE,Vestby,Viken,F,FV1361 S1D10 m150,59.602619,10.742781,10879.0,1.04,3) -10%...+10%
23392V625266,E6 Ulvensplitten Rampe Alnabru Økern,VEHICLE,Oslo,Oslo,E,EV6 S16D1 m5438 KD3 m125,59.923027,10.809383,11241.0,1.17,4) +10%...+25%
64839V705283,KYLSTAD ,VEHICLE,Ringsaker,Innlandet,F,FV227 S1D1 m6465,60.869326,11.05234,1788.0,0.69,1) <-25%
00241V1175824,LAAHNE,VEHICLE,Tønsberg,Vestfold og Telemark,F,FV35 S2D1 m24,59.296885,10.344604,6312.0,1.11,4) +10%...+25%
03520V1175848,NØTTERØYVEIEN,VEHICLE,Tønsberg,Vestfold og Telemark,F,FV308 S3D1 m2882,59.256891,10.415155,27050.0,1.09,3) -10%...+10%
17557V21908,Frivoll,VEHICLE,Grimstad,Agder,F,FV3624 S1D1 m126,58.34534,8.582868,5360.0,1.03,3) -10%...+10%
66678V320582,AUGLEND,VEHICLE,Stavanger,Rogaland,E,EV39 S100D1 m11957,58.933463,5.712738,60151.0,0.86,2) -25%...+10%
52721V857735,E6-Blodveien mot Rognan,VEHICLE,Saltdal,Nordland,K,KV15 S1D1 m155,67.097229,15.449751,473.0,1.16,4) +10%...+25%
14213V521376,E18 Nystrand,VEHICLE,Porsgrunn,Vestfold og Telemark,E,EV18 S27D1 m2752,59.110587,9.698228,16591.0,1.08,3) -10%...+10%
28135V121429,PININGEN,VEHICLE,Kristiansand,Agder,F,FV453 S1D1 m2216,58.250229,7.992718,3751.0,0.99,3) -10%...+10%
13600V805722,OLSVIKTUNNELEN,VEHICLE,Bergen,Vestland,F,FV562 S1D1 m1355,60.38428,5.215827,20368.0,1.03,3) -10%...+10%
17681V704560,GJEMSØLUND BRU,VEHICLE,Kongsvinger,Innlandet,F,FV198 S1D1 m7054,60.192069,11.993815,10526.0,0.99,3) -10%...+10%
76019V704826,RINGGATA ,VEHICLE,Hamar,Innlandet,F,FV187 S2D1 m468,60.805257,11.07079,10205.0,0.96,3) -10%...+10%
70394B2415370,Vassbotnen sykkel,BICYCLE,Stavanger,Rogaland,K,KV350 S1D1 m434,58.89083,5.713739,333.0,0.79,2) -25%...+10%
32977V384525,KVERNHAUGTUNNELEN,VEHICLE,Høyanger,Vestland,F,FV55 S19D1 m7528,61.207095,6.058275,1409.0,1.08,3) -10%...+10%
97351V930305,ROAVVEGIEDDE RGR,VEHICLE,Deatnu-Tana,Troms og Finnmark,E,EV75 S11D1 m20,69.916608,27.03962,117.0,1.07,3) -10%...+10%
53529V930655,KIFJORD/DYFJORD X,VEHICLE,Lebesby,Troms og Finnmark,F,FV894 S1D1 m14148,70.93543,27.429457,273.0,1.15,4) +10%...+25%
43051V72322,Eggkleiva,VEHICLE,Skaun,Trøndelag,F,FV709 S1D1 m4270,63.287114,10.049651,2008.0,0.98,3) -10%...+10%
41300V72150,Garli,VEHICLE,Midtre Gauldal,Trøndelag,E,EV6 S67D1 m40,62.891551,10.102077,5304.0,1.31,5) >+25%
87138V755378,DAMSGÅRDSVEIEN BOM,VEHICLE,Bergen,Vestland,K,KV4382 S1D1 m1203,60.382816,5.31545,615.0,1.95,5) >+25%
82149B886007,Skeid sykkelbarometer,BICYCLE,Bodø,Nordland,R,RV80 S5D150 m509,67.276065,14.450017,405.0,0.82,2) -25%...+10%
85320V885198,NAPPSTRAUMEN TUNNEL,VEHICLE,Flakstad,Nordland,E,EV10 S6D1 m6508,68.14693,13.463928,2087.0,1.06,3) -10%...+10%
00629V1828079,Viadukten under,VEHICLE,Kristiansund,Møre og Romsdal,F,FV539 S1D1 m853,63.12234,7.727616,6385.0,1.03,3) -10%...+10%
82609B1883476,KANNIK (SYKKEL),BICYCLE,Stavanger,Rogaland,F,FV441 S1D1 m486,58.965367,5.730638,431.0,0.69,1) <-25%
85303V886129,Svolvær Lufthavn,VEHICLE,Vågan,Nordland,F,FV7622 S1D1 m336,68.245917,14.665976,483.0,0.78,2) -25%...+10%
91397V249551,Tryggestad Ø.,VEHICLE,Stranda,Møre og Romsdal,F,FV60 S10D1 m4286,62.07322,6.802304,1040.0,1.17,4) +10%...+25%
20808V2037771,BOGSRUD PÅRAMPE,VEHICLE,Eidsvoll,Viken,E,EV6 S25D1 m3298 KD2 m100,60.331108,11.192081,206.0,1.31,5) >+25%
73355V319671,AUSTRÅTTUNNELEN,VEHICLE,Sandnes,Rogaland,F,FV516 S1D1 m2472,58.847192,5.763873,16777.0,0.92,3) -10%...+10%
59199V72809,MELHUS SØR,VEHICLE,Melhus,Trøndelag,E,EV6 S72D1 m1837,63.256138,10.282825,11858.0,0.78,2) -25%...+10%
11531V320190,V/KILDEN,VEHICLE,Stavanger,Rogaland,F,FV4552 S1D1 m251,58.94702,5.738736,12543.0,2.15,5) >+25%
37931V249569,Valldal,VEHICLE,Fjord,Møre og Romsdal,F,FV63 S8D1 m3778,62.297545,7.249402,1267.0,1.07,3) -10%...+10%
16799V248977,Sula,VEHICLE,Sula,Møre og Romsdal,F,FV61 S1D1 m1501,62.421693,6.288192,9924.0,1.13,4) +10%...+25%
32135V604101,General Ruges Vei V/bøler,VEHICLE,Oslo,Oslo,K,KV12212 S1D1 m1126,59.883897,10.84519,8508.0,1.04,3) -10%...+10%
71535V319524,Lassa,VEHICLE,Stavanger,Rogaland,R,RV509 S3D30 m355,58.959725,5.69966,28121.0,0.51,1) <-25%
03364V971801,STRØMSHAUG,VEHICLE,Råde,Viken,R,RV110 S1D1 m2032,59.34871,10.871909,9573.0,1.17,4) +10%...+25%
47447V72878,Ølholmslykkja,VEHICLE,Skaun,Trøndelag,F,FV800 S2D1 m4978,63.319865,10.141707,702.0,1.0,3) -10%...+10%
88980V805612,MEHAMMAR,VEHICLE,Stord,Vestland,E,EV39 S84D1 m1641,59.912683,5.488005,3361.0,1.32,5) >+25%
10229V1060056,KALLERUD SØR,VEHICLE,Gjøvik,Innlandet,R,RV4 S15D1 m782,60.784622,10.656083,17433.0,1.07,3) -10%...+10%
06938V521177,Kjørbekk,VEHICLE,Skien,Vestfold og Telemark,R,RV36 S2D1 m3974,59.177563,9.624225,18619.0,1.05,3) -10%...+10%
04512V930297,VEDBOTN,VEHICLE,Nordkapp,Troms og Finnmark,E,EV69 S6D1 m13629,70.776829,25.631604,424.0,0.85,2) -25%...+10%
83119V319703,Sælebø,VEHICLE,Sokndal,Rogaland,F,FV44 S5D1 m7719,58.379925,6.193571,1454.0,1.15,4) +10%...+25%
94975V2411852,Rostad,VEHICLE,Melhus,Trøndelag,E,EV6 S70D1 m1365,63.089078,10.250236,8257.0,1.23,4) +10%...+25%
25046V805611,STUDALEN FARTSTAVLE,VEHICLE,Stord,Vestland,E,EV39 S85D1 m6607,59.783154,5.481548,7442.0,1.22,4) +10%...+25%
76967V2523547,FURNES VEGKRYSS S,VEHICLE,Ringsaker,Innlandet,F,FV1726 S1D1 m150,60.840667,11.049635,6933.0,1.03,3) -10%...+10%
48434V704718,EIDSBRUA,VEHICLE,Våler,Innlandet,F,FV210 S7D10 m341,60.651233,11.829945,1024.0,1.03,3) -10%...+10%
33419V930316,Vardø Sentrum,VEHICLE,Vardø,Troms og Finnmark,E,EV75 S1D1 m376,70.371465,31.10358,1786.0,0.96,3) -10%...+10%
58345V1719147,EIDETTUNNELEN NORD,VEHICLE,Sarpsborg,Viken,E,EV6 S5D1 m4011,59.316036,11.000115,33816.0,0.7,1) <-25%
97086V1688134,HALSNØY BOMST.,VEHICLE,Kvinnherad,Vestland,F,FV500 S7D1 m7105,59.795366,5.732247,1258.0,1.73,5) >+25%
14103V704626,SKARNES BRU,VEHICLE,Sør-Odal,Innlandet,F,FV24 S1D1 m277,60.255791,11.680865,7594.0,1.02,3) -10%...+10%
38203V2433139,BAGN SØR,VEHICLE,Sør-Aurdal,Innlandet,E,EV16 S38D1 m899,60.813305,9.565753,2762.0,1.13,4) +10%...+25%
00333V249043,Tryggestad N.,VEHICLE,Stranda,Møre og Romsdal,F,FV655 S1D1 m33,62.07355,6.802355,243.0,1.24,4) +10%...+25%
12236V1693223,STORHAUGEN AUSTEVOLL,VEHICLE,Austevoll,Vestland,F,FV546 S3D40 m35,60.100465,5.223301,1761.0,1.04,3) -10%...+10%
18073V249438,Frænavegen,VEHICLE,Molde,Møre og Romsdal,F,FV538 S1D1 m1182,62.742305,7.193051,4736.0,1.07,3) -10%...+10%
20697V805009,NØSTET - PUD.BRU,VEHICLE,Bergen,Vestland,R,RV555 S1D1 m762 KD2 m30,60.386336,5.319369,7485.0,0.79,2) -25%...+10%
92838V1175672,HUNDSTOKK,VEHICLE,Sandefjord,Vestfold og Telemark,F,FV256 S4D1 m215,59.154326,10.197747,6765.0,1.18,4) +10%...+25%
31475V885919,SELFORS,VEHICLE,Rana,Nordland,E,EV6 S126D1 m2015,66.322372,14.243642,4015.0,1.31,5) >+25%
76956V249059,Remmetunnelen,VEHICLE,Ålesund,Møre og Romsdal,F,FV659 S1D1 m7261,62.55171,6.474153,3132.0,1.1,3) -10%...+10%
00520V885778,Fv885 Hadselbrukrysset,VEHICLE,Hadsel,Nordland,F,FV7636 S1D1 m50,68.583699,15.004512,1351.0,1.06,3) -10%...+10%
48559V2741763,FILEFJELLTUNNELEN,VEHICLE,Vang,Innlandet,E,EV16 S27D1 m6450,61.193677,8.186142,750.0,1.22,4) +10%...+25%
20188V805723,RAVNANGER FARTSTAVLE,VEHICLE,Askøy,Vestland,F,FV562 S2D1 m90,60.459961,5.150114,7253.0,0.85,2) -25%...+10%
10924V2275488,Mastemyrveien N1,VEHICLE,Nordre Follo,Viken,F,FV152 S7D1 m6026,59.81622,10.789545,7525.0,1.01,3) -10%...+10%
98981V443748,SKI ASSURTJERN,VEHICLE,Nordre Follo,Viken,F,FV1374 S1D1 m4885,59.783037,10.841125,13028.0,0.9,2) -25%...+10%
83248B1213727,HANNEVIK (SYKKEL),BICYCLE,Kristiansand,Agder,E,EV39 S128D1 m551,58.138612,7.963887,840.0,0.91,3) -10%...+10%
90666V320576,Råse bru,VEHICLE,Lund,Rogaland,E,EV39 S110D1 m257,58.469049,6.521981,4926.0,1.15,4) +10%...+25%
97853V384482,VASSENDEN,VEHICLE,Sunnfjord,Vestland,E,EV39 S55D1 m11798,61.502797,6.129846,3369.0,1.17,4) +10%...+25%
17291V181259,FRYDENLUND,VEHICLE,Lier,Viken,E,EV18 S47D1 m206,59.752435,10.245982,60034.0,0.83,2) -25%...+10%
46288V1060102,GARMO SØR,VEHICLE,Vågå,Innlandet,R,RV15 S4D1 m7001,61.846491,8.878035,2555.0,1.11,4) +10%...+25%
43294V181263,MEHEIA STASJON,VEHICLE,Kongsberg,Viken,E,EV134 S41D1 m4645,59.629705,9.499576,5442.0,0.99,3) -10%...+10%
40366V521376,Brattåstunnelen syd,VEHICLE,Porsgrunn,Vestfold og Telemark,E,EV18 S26D1 m6482,59.087049,9.664831,17544.0,1.11,4) +10%...+25%
69207B1875240,Siljanvegen sykkeltellepunkt,BICYCLE,Skien,Vestfold og Telemark,F,FV32 S6D140 m778,59.221003,9.60462,51.0,1.04,3) -10%...+10%
07034V805643,STEINDALEN BOMST.,VEHICLE,Kvam,Vestland,F,FV49 S8D1 m7739,60.362647,6.070751,2119.0,1.02,3) -10%...+10%
88864V521377,Stokkebakken,VEHICLE,Bamble,Vestfold og Telemark,E,EV18 S25D10 m5341,58.981345,9.605299,10596.0,0.13,1) <-25%
50344V444250,LØKEN,VEHICLE,Aurskog-Høland,Viken,F,FV115 S10D1 m6863,59.788,11.464453,2223.0,1.13,4) +10%...+25%
51706V805611,ÅDLAND FARTSTAVLE,VEHICLE,Stord,Vestland,E,EV39 S85D1 m4008,59.802499,5.49578,4182.0,1.28,5) >+25%
02460V886024,Sandkollen,VEHICLE,Bodø,Nordland,F,FV812 S4D1 m14700,67.207704,14.949018,741.0,1.14,4) +10%...+25%
27673V443867,ASKER SLEPENDEN,VEHICLE,Asker,Viken,F,FV1424 S2D1 m286,59.876976,10.501869,16043.0,1.03,3) -10%...+10%
81750V1060414,NORDSETERVEGEN,VEHICLE,Lillehammer,Innlandet,F,FV2520 S1D1 m8538,61.152674,10.557565,747.0,1.23,4) +10%...+25%
70046V180859,GML. KONGSBERG KRO,VEHICLE,Kongsberg,Viken,F,FV40 S13D1 m1842,59.667291,9.648768,16530.0,0.72,1) <-25%
47408V625213,E6 Teisen,VEHICLE,Oslo,Oslo,E,EV6 S16D1 m4434,59.915057,10.814306,66740.0,1.08,3) -10%...+10%
87564B971416,KIRKÅS SØR SYKKEL,BICYCLE,Indre Østfold,Viken,F,FV129 S1D20 m161,59.549506,11.346555,28.0,1.04,3) -10%...+10%
11908V1125977,Maursund v/værstasjon,VEHICLE,Skjervøy,Troms og Finnmark,F,FV866 S1D1 m19070,69.936812,20.913883,637.0,1.1,3) -10%...+10%
31891V249584,Bjørnås,VEHICLE,Rindal,Trøndelag,F,FV65 S6D1 m4405,63.08663,9.206875,1662.0,1.0,3) -10%...+10%
55797V443410,KRINGEN,VEHICLE,Lillestrøm,Viken,R,RV22 S13D1 m368,59.922497,11.177817,14925.0,1.0,3) -10%...+10%
79361V248910,Skorgedalen,VEHICLE,Vestnes,Møre og Romsdal,E,EV39 S27D1 m2029,62.568869,7.062433,4203.0,1.24,4) +10%...+25%
42420V320754,Salhusvegen,VEHICLE,Haugesund,Rogaland,F,FV4852 S1D1 m1928,59.392516,5.293023,3054.0,0.53,1) <-25%
58562V1718862,SOLBERG SØR,VEHICLE,Sarpsborg,Viken,E,EV6 S3D1 m3165,59.204459,11.178247,29466.0,0.49,1) <-25%
19084V704693,MASTERUD N,VEHICLE,Kongsvinger,Innlandet,E,EV16 S67D1 m3514,60.17949,12.321934,783.0,0.53,1) <-25%
87864V1060686,LIASANDEN,VEHICLE,Lom,Innlandet,F,FV55 S3D1 m6023,61.680863,8.229753,322.0,1.03,3) -10%...+10%
50741V1727509,Smeaheia vest retning Sør,VEHICLE,Sandnes,Rogaland,R,RV444 S1D1 m6639,58.862193,5.709996,8640.0,1.09,3) -10%...+10%
92375V704717,KVISLER N,VEHICLE,Åsnes,Innlandet,F,FV210 S6D1 m7001,60.583332,11.974399,1724.0,1.03,3) -10%...+10%
48028B1735081,Revheimsvegen sykkel,BICYCLE,Stavanger,Rogaland,R,RV509 S3D100 m2984,58.951641,5.658083,358.0,0.92,3) -10%...+10%
82641V705036,VESTHEIMGATA,VEHICLE,Elverum,Innlandet,F,FV210 S11D1 m9768,60.874999,11.548407,1797.0,0.92,3) -10%...+10%
96288V1944365,SVORTLAND ØST,VEHICLE,Bømlo,Vestland,F,FV542 S2D1 m8098,59.797324,5.187563,6593.0,1.08,3) -10%...+10%
04712V2518836,KNAPPETUNNELEN-SOTRA,VEHICLE,Bergen,Vestland,F,FV557 S1D1 m8898 KD6 m21,60.366008,5.251257,7015.0,0.99,3) -10%...+10%
41451V320581,FOLKVORD,VEHICLE,Sandnes,Rogaland,E,EV39 S101D1 m4716,58.850215,5.714475,40675.0,1.02,3) -10%...+10%
70080V2583668,GRAN RÅDHUS,VEHICLE,Gran,Innlandet,R,RV4 S9D1 m13669,60.392597,10.561914,11771.0,1.1,3) -10%...+10%
38617V2680848,BOMMESTAD BAKKEN,VEHICLE,Larvik,Vestfold og Telemark,E,EV18 S32D1 m426,59.083658,10.057497,21681.0,1.06,3) -10%...+10%
30128V121328,Rampe fra Østre ringvei,VEHICLE,Kristiansand,Agder,E,EV18 S1D1 m5911 KD2 m110,58.160961,8.019373,5671.0,1.05,3) -10%...+10%
33053V578221,Sætersmyra,VEHICLE,Levanger,Trøndelag,F,FV774 S1D1 m1190,63.753158,11.35914,5935.0,1.07,3) -10%...+10%
92533V444218,DALSBEKKENBRU,VEHICLE,Nordre Follo,Viken,F,FV156 S1D1 m1830,59.760238,10.809792,3630.0,1.03,3) -10%...+10%
09784V249609,Myrvåg,VEHICLE,Herøy,Møre og Romsdal,F,FV654 S1D1 m949,62.280005,5.793687,4405.0,1.13,4) +10%...+25%
14779B1769080,Kåsen sykkel- begge retn,BICYCLE,Klepp,Rogaland,F,FV44 S13D160 m221,58.746749,5.632532,137.0,0.9,2) -25%...+10%
17482V249119,Kvernberget lufthavn,VEHICLE,Kristiansund,Møre og Romsdal,R,RV70 S18D10 m238,63.109684,7.805299,3421.0,0.99,3) -10%...+10%
78401V1175838,HYSTADVEIEN,VEHICLE,Sandefjord,Vestfold og Telemark,F,FV303 S3D1 m7839,59.120556,10.218944,13172.0,0.99,3) -10%...+10%
80646V1060116,RAMBEKK,VEHICLE,Gjøvik,Innlandet,F,FV33 S7D1 m13840,60.776938,10.700858,10210.0,1.07,3) -10%...+10%
51694V384545,GRYTADALEN,VEHICLE,Kinn,Vestland,F,FV614 S2D1 m6260,61.667377,5.194941,725.0,1.41,5) >+25%
81577B1876809,Menstadbrua sykkeltellepunkt,BICYCLE,Skien,Vestfold og Telemark,F,FV32 S7D260 m577,59.174213,9.632476,165.0,0.91,3) -10%...+10%
34157V2312145,Økerntunellen mot Sentrum Datter,VEHICLE,Oslo,Oslo,R,RV163 S1D1 m786,59.929388,10.803623,6830.0,1.1,3) -10%...+10%
56300V1175677,TORP,VEHICLE,Sandefjord,Vestfold og Telemark,E,EV18 S35D10 m2126,59.183919,10.238891,5459.0,0.51,1) <-25%
30762V1126319,SILSAND VEST,VEHICLE,Senja,Troms og Finnmark,F,FV86 S5D1 m1487,69.244041,17.948533,6223.0,1.04,3) -10%...+10%
07937V1886018,BJØRGEVN.SANDEIDET,VEHICLE,Bergen,Vestland,F,FV574 S2D1 m20,60.333278,5.265037,8235.0,1.02,3) -10%...+10%
89589V578667,HORJEM,VEHICLE,Snåsa,Trøndelag,F,FV763 S7D1 m3345,64.261411,12.364409,670.0,1.02,3) -10%...+10%
93598V22200,HELLE,VEHICLE,Arendal,Agder,F,FV410 S5D1 m482,58.503888,8.85544,5339.0,1.04,3) -10%...+10%
58061V2388178,MOMARKEN NORD,VEHICLE,Indre Østfold,Viken,R,RV22 S9D1 m175,59.578207,11.324979,4209.0,0.95,3) -10%...+10%
62250V1175545,HESTEHAGEN,VEHICLE,Tønsberg,Vestfold og Telemark,F,FV308 S1D1 m1650,59.302392,10.38847,11343.0,1.09,3) -10%...+10%
33431V625542,Rv 163 Brobekk Sydgående Avrampe,VEHICLE,Oslo,Oslo,R,RV163 S1D1 m2479 KD3 m74,59.932927,10.828059,2567.0,1.42,5) >+25%
72351V1175548,NEDRE LANGGATE,VEHICLE,Tønsberg,Vestfold og Telemark,F,FV308 S3D1 m1870,59.264039,10.410795,16375.0,0.98,3) -10%...+10%
98723V971842,VEUMVEIEN,VEHICLE,Fredrikstad,Viken,F,FV381 S1D1 m680,59.224745,10.929511,7768.0,0.93,3) -10%...+10%
96123B805439,ARNA SYKKEL(KJØREBANE),BICYCLE,Bergen,Vestland,F,FV5356 S1D1 m3735,60.426482,5.469724,87.0,1.17,4) +10%...+25%
43916V384471,BORGUNDSTUNNELEN,VEHICLE,Lærdal,Vestland,E,EV16 S23D1 m4310,61.05096,7.772711,2220.0,1.09,3) -10%...+10%
34684V384477,ÅRBERGSDALEN,VEHICLE,Sunnfjord,Vestland,E,EV39 S61D1 m1979,61.292055,5.826859,2414.0,1.23,4) +10%...+25%
37884V384499,EVJA,VEHICLE,Kinn,Vestland,R,RV5 S20D1 m5305,61.59907,5.048544,7479.0,1.14,4) +10%...+25%
36539V181297,VEGGLI,VEHICLE,Rollag,Viken,F,FV40 S19D1 m2597,60.039391,9.165862,2584.0,1.18,4) +10%...+25%
99454V104306,TRETJØNNVEIEN,VEHICLE,Kristiansand,Agder,K,KV18900 S1D1 m3279,58.163945,8.009789,2746.0,1.12,4) +10%...+25%
58027V1787933,FÅBERG KIRKE,VEHICLE,Lillehammer,Innlandet,F,FV255 S2D1 m2064,61.164353,10.35436,4576.0,1.12,4) +10%...+25%
96899V22203,TVEDESTRAND SENTRUM,VEHICLE,Tvedestrand,Agder,F,FV411 S5D1 m1355,58.625459,8.926757,5319.0,1.0,3) -10%...+10%
17838V930639,Sandnes,VEHICLE,Sør-Varanger,Troms og Finnmark,F,FV8850 S1D1 m1775,69.674938,29.961975,3919.0,2.13,5) >+25%
29934V705212,SORMA,VEHICLE,Elverum,Innlandet,R,RV2 S13D1 m3428,60.75272,11.76204,3576.0,0.99,3) -10%...+10%
22504V72241,Øysand,VEHICLE,Melhus,Trøndelag,E,EV39 S1D1 m2825,63.323305,10.247763,14248.0,1.02,3) -10%...+10%
93561V578187,Rengen,VEHICLE,Lierne,Trøndelag,F,FV765 S5D1 m10350,64.092488,14.049408,164.0,0.14,1) <-25%
13943V384566,PRESTHOLTEN,VEHICLE,Sunnfjord,Vestland,F,FV601 S1D1 m1403,61.454589,5.873768,4242.0,1.07,3) -10%...+10%
13093V804836,AMALIE/FLØYFJELLET,VEHICLE,Bergen,Vestland,E,EV39 S77D1 m3165 KD2 m30,60.414043,5.321726,2846.0,1.4,5) >+25%
69779V1175882,AKERSVANNET,VEHICLE,Sandefjord,Vestfold og Telemark,F,FV256 S7D1 m2430,59.253188,10.302546,4106.0,1.07,3) -10%...+10%
77061V444230,EV 18 v/rasteplass Ski,VEHICLE,Ås,Viken,E,EV18 S59D1 m1924,59.731456,10.78419,24895.0,0.99,3) -10%...+10%
89457V2303027,Eikeberget NØ rampe,VEHICLE,Sola,Rogaland,R,RV509 S1D1 m1799 KD1 m309,58.897005,5.677165,1284.0,1.01,3) -10%...+10%
55851V319715,BRYNE NORD,VEHICLE,Time,Rogaland,F,FV44 S13D1 m2149,58.740034,5.639983,20200.0,1.12,4) +10%...+25%
00268V521197,TJØNNEFOSS V,VEHICLE,Nissedal,Vestfold og Telemark,F,FV355 S1D1 m30,58.975068,8.522052,233.0,1.12,4) +10%...+25%
81732V625378,Rv 4 Bjerke Sydgående Avrampe,VEHICLE,Oslo,Oslo,R,RV4 S1D1 m2095 KD3 m166,59.94293,10.81009,1520.0,1.1,3) -10%...+10%
52778V1175506,SKREPPESTAD,VEHICLE,Larvik,Vestfold og Telemark,F,FV303 S2D1 m739,59.04423,10.071242,10971.0,1.03,3) -10%...+10%
00000V2416679,ALFARVEGEN (FV111),VEHICLE,Gjøvik,Innlandet,F,FV2370 S4D10 m299,60.784858,10.679821,10798.0,1.07,3) -10%...+10%
19257V930281,KIRKENES E6 SØR,VEHICLE,Sør-Varanger,Troms og Finnmark,E,EV6 S243D1 m8378,69.697043,30.01388,3652.0,2.17,5) >+25%
49666V1126313,SJØVEGAN VEST,VEHICLE,Salangen,Troms og Finnmark,F,FV84 S3D1 m2132,68.88519,17.816606,1652.0,1.05,3) -10%...+10%
04293V1060674,BRANDBU,VEHICLE,Gran,Innlandet,F,FV34 S1D1 m431,60.401597,10.544572,7139.0,1.05,3) -10%...+10%
82998V971817,TUNE KIRKE,VEHICLE,Sarpsborg,Viken,F,FV118 S5D1 m3663,59.292542,11.08388,14826.0,1.0,3) -10%...+10%
68243V1175821,BAKKENTEIGEN SØR,VEHICLE,Horten,Vestfold og Telemark,F,FV325 S3D1 m1312,59.363618,10.441537,10971.0,1.03,3) -10%...+10%
49306V704987,GLOMMENGT V/LARSSON,VEHICLE,Kongsvinger,Innlandet,F,FV196 S1D1 m704,60.188222,11.997372,6958.0,1.0,3) -10%...+10%
02175V930310,Vadsø Vest,VEHICLE,Vadsø,Troms og Finnmark,E,EV75 S7D1 m5988,70.078264,29.720658,3665.0,1.15,4) +10%...+25%
75719V249047,Mo,VEHICLE,Ørsta,Møre og Romsdal,F,FV655 S5D1 m11874,62.193335,6.145479,3102.0,1.11,4) +10%...+25%
65758V1796925,NØSTVETTUNNELEN,VEHICLE,Ås,Viken,E,EV6 S14D1 m2499,59.758719,10.808882,43178.0,0.95,3) -10%...+10%
34500V930598,OLDERFJORD SØR,VEHICLE,Porsanger,Troms og Finnmark,E,EV6 S214D1 m1140,70.471705,25.098746,702.0,1.11,4) +10%...+25%
64472V141952,Prof.Smiths Alle,VEHICLE,Drammen,Viken,K,KV1565 S3D1 m850,59.740283,10.168872,7668.0,1.17,4) +10%...+25%
51972V705259,SKULSTAD,VEHICLE,Nord-Odal,Innlandet,F,FV209 S3D1 m10424,60.432055,11.610893,2423.0,1.0,3) -10%...+10%
33685V3109883,Furneset,VEHICLE,Sula,Møre og Romsdal,F,FV657 S1D1 m68,62.421936,6.285756,6506.0,1.15,4) +10%...+25%
75525V72242,Storsandtunnelen,VEHICLE,Skaun,Trøndelag,E,EV39 S3D1 m2717,63.33235,9.942115,9886.0,1.1,3) -10%...+10%
82819V248945,Moa N.,VEHICLE,Ålesund,Møre og Romsdal,E,EV136 S2D1 m231,62.468289,6.352373,10035.0,1.2,4) +10%...+25%
93763V320622,Iglatjørntunnelen,VEHICLE,Suldal,Rogaland,F,FV46 S5D1 m8260,59.483953,6.192453,1113.0,1.16,4) +10%...+25%
96654V2568305,Tresfjordbrua,VEHICLE,Vestnes,Møre og Romsdal,E,EV136 S3D1 m2259,62.610849,7.140123,2130.0,1.23,4) +10%...+25%
58182V2395192,Kvislabakken,VEHICLE,Stjørdal,Trøndelag,E,EV6 S80D1 m890,63.482725,10.893396,12832.0,1.13,4) +10%...+25%
44223V705233,NARBUVOLL,VEHICLE,Os,Innlandet,F,FV28 S5D1 m772,62.374634,11.470459,313.0,1.0,3) -10%...+10%
12357V625212,Klemetsrud,VEHICLE,Oslo,Oslo,E,EV6 S15D1 m1191,59.82707,10.843871,51471.0,0.97,3) -10%...+10%
84237V578097,TEVELDALEN,VEHICLE,Meråker,Trøndelag,E,EV14 S7D1 m14019,63.340732,12.03835,1923.0,0.09,1) <-25%
26714V180853,STRØMSÅSTUNNELEN,VEHICLE,Drammen,Viken,E,EV134 S45D1 m11879,59.731766,10.182457,19610.0,1.04,3) -10%...+10%
86779V805748,BRYGGEN,VEHICLE,Bergen,Vestland,F,FV577 S1D1 m1080,60.395782,5.325602,8577.0,0.79,2) -25%...+10%
34956V249577,Fræneidet,VEHICLE,Hustadvika,Møre og Romsdal,F,FV64 S10D1 m3379,62.863457,7.270809,3007.0,1.11,4) +10%...+25%
65824B1700572,Tune kirke sør,BICYCLE,Sarpsborg,Viken,F,FV118 S5D30 m325,59.292492,11.083983,37.0,0.76,2) -25%...+10%
66346V625214,E6 Ulvensplitten Rampe Alnabru Teisen,VEHICLE,Oslo,Oslo,E,EV6 S16D1 m8422,59.922925,10.809402,15836.0,0.99,3) -10%...+10%
82101V443758,SKYSSJORDET,VEHICLE,Ås,Viken,F,FV1385 S1D1 m5452,59.709796,10.77213,3503.0,0.98,3) -10%...+10%
05746V2353431,BORTNETUNNELEN,VEHICLE,Bremanger,Vestland,F,FV616 S3D10 m10224,61.815883,5.385929,437.0,1.34,5) >+25%
92486V1126283,LANGMYRA NORD,VEHICLE,Gratangen,Troms og Finnmark,E,EV6 S168D1 m228,68.653301,17.699279,2239.0,1.16,4) +10%...+25%
86022V521170,Høgenheitunnelen,VEHICLE,Bamble,Vestfold og Telemark,R,RV354 S1D1 m708,59.041511,9.677536,7089.0,1.12,4) +10%...+25%
65823V1668921,FJØSDALEN,VEHICLE,Flakstad,Nordland,E,EV10 S2D1 m10105,67.981668,13.175467,1125.0,1.01,3) -10%...+10%
91007V578610,Gartland mot Harran,VEHICLE,Grong,Trøndelag,E,EV6 S99D1 m800,64.531009,12.405213,2351.0,1.4,5) >+25%
33547V444051,Nordby skole,VEHICLE,Ullensaker,Viken,F,FV1496 S7D1 m767,60.150181,11.170525,8887.0,0.94,3) -10%...+10%
46725V3026132,LOFTESNES,VEHICLE,Sogndal,Vestland,R,RV5 S5D1 m6222,61.22951,7.124481,6342.0,1.02,3) -10%...+10%
68557V444232,BLOMMENHOLM,VEHICLE,Bærum,Viken,E,EV18 S52D1 m1113,59.891774,10.535191,78494.0,1.07,3) -10%...+10%
34711V705268,MOELV N,VEHICLE,Ringsaker,Innlandet,F,FV213 S4D1 m1838,60.944126,10.689568,2806.0,1.08,3) -10%...+10%
68733V2078106,RAMPE NYBORG-VÅGSBOTN,VEHICLE,Bergen,Vestland,E,EV39 S76D1 m1030 KD4 m125,60.474947,5.333607,4700.0,1.09,3) -10%...+10%
49453V930259,BARTA,VEHICLE,Kàràsjohka-Karasjok,Troms og Finnmark,E,EV6 S226D1 m11962,69.756092,26.145049,198.0,1.4,5) >+25%
79710V1717877,KOBBERVIKDALEN,VEHICLE,Drammen,Viken,F,FV319 S1D1 m109,59.715055,10.234433,3766.0,0.93,3) -10%...+10%
37885V1204218,BORGENKRYSSET AVRAMPE,VEHICLE,Ullensaker,Viken,E,EV16 S58D1 m4117 KD1 m125,60.091735,11.212783,1301.0,1.01,3) -10%...+10%
11693V443793,BARUM SANDVIKVEIEN,VEHICLE,Bærum,Viken,F,FV1424 S1D1 m132,59.887934,10.521018,7163.0,1.23,4) +10%...+25%
21768V805002,TORBORG NEDREAASGT.,VEHICLE,Bergen,Vestland,R,RV555 S1D20 m342,60.388477,5.314641,18172.0,0.95,3) -10%...+10%
11991V121784,KJOS,VEHICLE,Kristiansand,Agder,F,FV456 S1D1 m3493,58.112483,7.95566,17572.0,1.05,3) -10%...+10%
06960B1800778,Havnevegen - sykkel,BICYCLE,Verdal,Trøndelag,F,FV757 S1D1 m900,63.784902,11.459583,49.0,0.67,1) <-25%
75774V1060655,SMEDMOEN,VEHICLE,Gjøvik,Innlandet,R,RV4 S17D1 m3211,60.915767,10.661645,12390.0,1.1,3) -10%...+10%
87610V1811579,DALKRYSSET,VEHICLE,Ullensaker,Viken,E,EV6 S24D1 m2343,60.255205,11.179904,14404.0,1.11,4) +10%...+25%
89879V1060627,ILKA (E6),VEHICLE,Dovre,Innlandet,E,EV6 S52D1 m8102,61.96595,9.252925,4458.0,1.22,4) +10%...+25%
39245V319652,Rossabø,VEHICLE,Haugesund,Rogaland,E,EV134 S2D1 m425,59.39547,5.301717,14395.0,1.09,3) -10%...+10%
45690V1919945,NORD-SEL KRK. (FV438),VEHICLE,Sel,Innlandet,F,FV2614 S1D1 m13000,61.845784,9.415415,1530.0,1.2,4) +10%...+25%
20829V521117,MANNEBRU,VEHICLE,Midt-Telemark,Vestfold og Telemark,R,RV36 S9D1 m4219,59.410667,9.111865,6035.0,1.02,3) -10%...+10%
62393V72804,Oppdal E6 nordlig,VEHICLE,Oppdal,Trøndelag,E,EV6 S62D1 m2760,62.596303,9.702734,5301.0,1.4,5) >+25%
52148V1797330,STØYLSNESTUNNELEN,VEHICLE,Sunnfjord,Vestland,R,RV5 S12D1 m320,61.529744,6.599291,1578.0,1.16,4) +10%...+25%
47719V443837,VOLLSVEIEN,VEHICLE,Bærum,Viken,F,FV1632 S1D1 m1146,59.940893,10.626438,3862.0,1.19,4) +10%...+25%
56109V1060668,VARDALSÅSEN,VEHICLE,Gjøvik,Innlandet,F,FV33 S9D1 m14431,60.790871,10.399319,4109.0,1.11,4) +10%...+25%
02269V704697,SKOTTERUD V,VEHICLE,Eidskog,Innlandet,F,FV202 S1D1 m299,59.981163,12.12098,3211.0,1.07,3) -10%...+10%
18301V1688125,TOFTEVÅG FV544,VEHICLE,Kvinnherad,Vestland,F,FV500 S7D1 m7165,59.794849,5.731963,1479.0,1.52,5) >+25%
80949V248993,Flydalen,VEHICLE,Stranda,Møre og Romsdal,F,FV63 S3D1 m6490,62.086877,7.22549,575.0,0.95,3) -10%...+10%
54236V384508,HAUGEN,VEHICLE,Stad,Vestland,R,RV15 S21D1 m5293,61.923268,5.88937,3906.0,1.11,4) +10%...+25%
54075V22179,AAMLI NORD,VEHICLE,Åmli,Agder,R,RV41 S9D1 m5511,58.775015,8.494444,1360.0,1.17,4) +10%...+25%
14360V1060146,FOSSBERGOM,VEHICLE,Lom,Innlandet,F,FV55 S1D1 m1576,61.827624,8.547698,914.0,0.98,3) -10%...+10%
71701V443203,Ski Flataaser pårampe,VEHICLE,Nordre Follo,Viken,E,EV6 S14D1 m7218 KD4 m450,59.793392,10.841106,1642.0,1.03,3) -10%...+10%
97150V2368685,BJØRNSONSGATEN,VEHICLE,Bergen,Vestland,F,FV582 S2D1 m7263,60.374481,5.340353,5618.0,1.1,3) -10%...+10%
16644V1175490,Elvevegen ESSO,VEHICLE,Larvik,Vestfold og Telemark,R,RV400 S1D1 m1577,59.051465,10.064049,12086.0,1.0,3) -10%...+10%
41419V1669366,KOPSTAD SYD,VEHICLE,Horten,Vestfold og Telemark,E,EV18 S40D1 m5255,59.416887,10.364301,26877.0,1.11,4) +10%...+25%
77240V121772,HAVIK,VEHICLE,Farsund,Agder,F,FV43 S3D1 m1828,58.09953,6.832814,4018.0,1.14,4) +10%...+25%
97726V384079,STRYN SENTRUM,VEHICLE,Stryn,Vestland,R,RV15 S18D1 m9117,61.903722,6.720758,4496.0,1.19,4) +10%...+25%
82309V705237,ÅKRESTRØMMEN S,VEHICLE,Rendalen,Innlandet,F,FV30 S28D1 m52,61.695831,11.196038,480.0,1.0,3) -10%...+10%
27094V320578,Helleland Kirke,VEHICLE,Eigersund,Rogaland,E,EV39 S106D1 m6587,58.522672,6.113935,6876.0,1.14,4) +10%...+25%
84996V1060616,ØYER GR. SØR (E6),VEHICLE,Øyer,Innlandet,E,EV6 S40D1 m4578,61.187452,10.416607,10965.0,1.17,4) +10%...+25%
37541V805680,ISDALSTØ FARTSTAVLE,VEHICLE,Alver,Vestland,F,FV57 S1D1 m3661,60.574866,5.270725,6309.0,1.01,3) -10%...+10%
79755V625294,MARITIM-510B,VEHICLE,Oslo,Oslo,E,EV18 S55D1 m1561,59.918562,10.666507,81233.0,0.94,3) -10%...+10%
83961V1886010,FYLLINGSDALEN V/ SANDEIDET,VEHICLE,Bergen,Vestland,F,FV540 S1D1 m6052,60.333376,5.265969,15780.0,1.01,3) -10%...+10%
43574V249669,Nyjord,VEHICLE,Aukra,Møre og Romsdal,F,FV531 S1D1 m781,62.804262,6.87447,1134.0,1.04,3) -10%...+10%
66661V1944424,HOLLUNDSVEGEN,VEHICLE,Bømlo,Vestland,F,FV5004 S1D1 m40,59.797169,5.185952,2876.0,0.96,3) -10%...+10%
37009B1175548,NORDBYEN-SYKKEL,BICYCLE,Tønsberg,Vestfold og Telemark,F,FV308 S3D1 m1022,59.270069,10.402035,272.0,0.94,3) -10%...+10%
00172B1699322,STANGEBRUA SYKKEL,BICYCLE,Stange,Innlandet,F,FV222 S3D1 m9057,60.784944,11.105447,349.0,0.9,2) -25%...+10%
13658V2659403,Granfosstunnelen Mot Metrering,VEHICLE,Bærum,Viken,R,RV150 S3D1 m1781,59.913962,10.629457,14537.0,1.29,5) >+25%
94909V444072,Fv 469 Vallhall,VEHICLE,Ullensaker,Viken,F,FV1566 S1D1 m802,60.168949,11.14413,5025.0,1.02,3) -10%...+10%
86451V805010,PUD.BRU - NØSTET,VEHICLE,Bergen,Vestland,R,RV555 S1D1 m762 KD3 m185,60.386423,5.319341,7205.0,0.84,2) -25%...+10%
57544V930596,E6 Skaidi,VEHICLE,Hammerfest,Troms og Finnmark,E,EV6 S210D1 m13552,70.432433,24.503051,1516.0,1.05,3) -10%...+10%
60468V1060180,VINGROM VEST,VEHICLE,Lillehammer,Innlandet,F,FV250 S4D1 m11173,61.050538,10.387512,1035.0,1.17,4) +10%...+25%
54369V2511480,Dragsund,VEHICLE,Ulstein,Møre og Romsdal,F,FV61 S4D1 m5363,62.290942,5.850925,6340.0,1.15,4) +10%...+25%
04274V705260,Storgata Kongsvinger,VEHICLE,Kongsvinger,Innlandet,K,KV1880 S3D1 m152,60.191699,11.998983,5700.0,0.99,3) -10%...+10%
86055V930630,SKJÅHOLMEN,VEHICLE,Hammerfest,Troms og Finnmark,R,RV94 S4D1 m2893,70.545941,23.730494,1374.0,1.56,5) >+25%
68511V2673383,Tromsøysundtunnelen T1,VEHICLE,Tromsø,Troms og Finnmark,E,EV8 S2D1 m2966,69.67012,19.018382,5567.0,1.05,3) -10%...+10%
78456V521428,TJØNNEFOSS,VEHICLE,Nissedal,Vestfold og Telemark,R,RV41 S12D1 m2091,58.975403,8.522506,1109.0,1.19,4) +10%...+25%
09081V1822315,YTREBYGDSVN. VED DOLVIK SØR,VEHICLE,Bergen,Vestland,F,FV556 S1D1 m6905,60.309016,5.268046,10536.0,0.97,3) -10%...+10%
36944V2664207,Jessheim nord mot Gardermoen,VEHICLE,Ullensaker,Viken,E,EV16 S57D30 m350,60.160397,11.153762,763.0,0.48,1) <-25%
81686B2542142,NØTTERØYVEIEN-SYKKEL,BICYCLE,Tønsberg,Vestfold og Telemark,F,FV308 S3D1 m2882,59.256891,10.415155,353.0,1.03,3) -10%...+10%
00917V805315,KJØKKELVIKVEIEN,VEHICLE,Bergen,Vestland,F,FV5208 S1D1 m26,60.370507,5.232095,5437.0,1.06,3) -10%...+10%
83592B383737,FØRDE VEST (SYKKEL),BICYCLE,Sunnfjord,Vestland,E,EV39 S58D800 m285,61.450488,5.848312,157.0,1.05,3) -10%...+10%
10441V704745,VIKSELV,VEHICLE,Stange,Innlandet,F,FV222 S1D1 m1876,60.619886,11.285111,922.0,1.07,3) -10%...+10%
03836V1125958,Kvaløysletta nord,VEHICLE,Tromsø,Troms og Finnmark,F,FV863 S1D1 m378,69.698434,18.889475,6016.0,1.01,3) -10%...+10%
69037V625235,Skullerud Avrampe Nordgående,VEHICLE,Oslo,Oslo,E,EV6 S15D1 m5382 KD1 m210,59.862816,10.830928,2901.0,1.08,3) -10%...+10%
42465V1060624,SJOA SØR,VEHICLE,Nord-Fron,Innlandet,F,FV2522 S7D1 m6806,61.669614,9.567347,634.0,1.02,3) -10%...+10%
18554V248977,Furnestunnelen,VEHICLE,Sula,Møre og Romsdal,F,FV61 S1D1 m1659,62.421656,6.285145,1671.0,1.1,3) -10%...+10%
94820V1175548,KANALBRUA,VEHICLE,Tønsberg,Vestfold og Telemark,F,FV308 S3D1 m2409,59.261333,10.416086,33116.0,1.03,3) -10%...+10%
57782V443152,Ski Flataaser,VEHICLE,Nordre Follo,Viken,E,EV6 S14D1 m7040,59.793318,10.841326,47071.0,0.96,3) -10%...+10%
70520V1060274,ØVERBYVEGEN 64,VEHICLE,Vestre Toten,Innlandet,F,FV2362 S3D1 m5751,60.735685,10.632546,1501.0,1.08,3) -10%...+10%
08615V2398666,VANGSTUNNELEN,VEHICLE,Voss,Vestland,E,EV16 S10D1 m9274,60.637203,6.418082,4409.0,1.07,3) -10%...+10%
81008V41567,Festningsgata,VEHICLE,Trondheim,Trøndelag,F,FV6666 S1D1 m1857,63.428338,10.416223,9005.0,0.98,3) -10%...+10%
08132V1984223,VÆRSTEBRUA,VEHICLE,Fredrikstad,Viken,F,FV108 S1D1 m1072,59.215639,10.926776,10901.0,1.07,3) -10%...+10%
57211V805408,IBSENSGATE,VEHICLE,Bergen,Vestland,F,FV584 S1D1 m640,60.373142,5.350081,1176.0,0.73,1) <-25%
74001V578650,Jubergskorsen mot Åsen,VEHICLE,Frosta,Trøndelag,F,FV753 S2D1 m3684,63.583551,10.761487,1953.0,0.91,3) -10%...+10%
18304V22179,RISLANDSFETA,VEHICLE,Åmli,Agder,R,RV41 S9D1 m2022,58.747534,8.474318,1001.0,1.09,3) -10%...+10%
95678V1125814,TJELDSUND BRU VEST,VEHICLE,Harstad,Troms og Finnmark,E,EV10 S27D1 m520,68.630487,16.565815,4929.0,0.95,3) -10%...+10%
53953V704480,MJØSBRUA ØST,VEHICLE,Ringsaker,Innlandet,E,EV6 S32D20 m10421,60.926852,10.684211,13938.0,1.05,3) -10%...+10%
12393V249627,Eidem,VEHICLE,Hustadvika,Møre og Romsdal,F,FV664 S1D1 m1214,62.851313,7.114961,3296.0,1.06,3) -10%...+10%
02535V971411,HOLTET,VEHICLE,Halden,Viken,F,FV220 S1D1 m245,58.880725,11.535469,249.0,0.33,1) <-25%
12012V578177,Byaenget,VEHICLE,Steinkjer,Trøndelag,F,FV763 S1D1 m1148,64.025285,11.501723,3260.0,0.93,3) -10%...+10%
04474V1060615,VINGROM SØR,VEHICLE,Lillehammer,Innlandet,E,EV6 S35D1 m14840,61.035831,10.440602,11689.0,1.11,4) +10%...+25%
04823V930651,Kongsfjord,VEHICLE,Berlevåg,Troms og Finnmark,F,FV890 S7D1 m12993,70.712538,29.289891,177.0,1.18,4) +10%...+25%
87721V2695722,KJØREPLASS BRU ØST,VEHICLE,Modum,Viken,F,FV287 S1D1 m3521,59.908712,9.895023,3253.0,1.07,3) -10%...+10%
83425V249573,Torvika,VEHICLE,Rauma,Møre og Romsdal,F,FV64 S2D1 m6337,62.567699,7.58528,1789.0,1.08,3) -10%...+10%
09717B1671751,Vollevann fv452 Sykkel,BICYCLE,Kristiansand,Agder,F,FV452 S1D105 m24,58.166136,8.033196,329.0,0.99,3) -10%...+10%
56756V521160,Skafsåheia,VEHICLE,Tokke,Vestfold og Telemark,F,FV45 S5D1 m984,59.370063,7.867363,336.0,1.19,4) +10%...+25%
16849V805748,NATLAND BOMSTASJON,VEHICLE,Bergen,Vestland,F,FV585 S1D1 m1689,60.346759,5.364217,9370.0,1.03,3) -10%...+10%
21252V704759,MESNALIA N,VEHICLE,Ringsaker,Innlandet,F,FV229 S1D1 m1974,61.107534,10.70233,2265.0,1.21,4) +10%...+25%
72753V1896595,SMAALENENE BRU,VEHICLE,Indre Østfold,Viken,E,EV18 S63D1 m1479,59.592219,11.096415,12814.0,0.91,3) -10%...+10%
70248V804944,MONGSTAD SØR,VEHICLE,Austrheim,Vestland,F,FV57 S4D1 m9773,60.793234,5.021578,3627.0,0.99,3) -10%...+10%
79743V1125914,TROMSØBRUA,VEHICLE,Tromsø,Troms og Finnmark,F,FV862 S1D1 m1705,69.654122,18.96536,19332.0,1.0,3) -10%...+10%
49827V971809,SKIPTVET NORD,VEHICLE,Skiptvet,Viken,F,FV115 S5D1 m5495,59.49684,11.163598,4448.0,1.03,3) -10%...+10%
90390V443603,BÆRUM RINGSTADBEKK,VEHICLE,Bærum,Viken,F,FV160 S1D1 m2028,59.920041,10.596105,8997.0,1.09,3) -10%...+10%
45587V384040,GRAVENSTEINSGATA,VEHICLE,Sogndal,Vestland,R,RV5 S6D1 m1192,61.231306,7.101244,9443.0,1.05,3) -10%...+10%
16339V444237,INGJERDALEN,VEHICLE,Ullensaker,Viken,F,FV1548 S2D1 m1550,60.089676,11.243324,793.0,0.97,3) -10%...+10%
47171V2712128,HØGBERGET,VEHICLE,Nord-Fron,Innlandet,F,FV255 S9D1 m11001,61.57693,9.533477,440.0,1.11,4) +10%...+25%
27754V805707,DAMSGÅRDTUNNELEN,VEHICLE,Bergen,Vestland,R,RV555 S1D1 m2621,60.381229,5.293341,41156.0,1.01,3) -10%...+10%
01559V249583,Rindalskogen,VEHICLE,Rindal,Trøndelag,F,FV65 S5D1 m130,63.097053,9.436914,1223.0,1.02,3) -10%...+10%
51368V625246,Pårampe fra Sandstuveien,VEHICLE,Oslo,Oslo,E,EV6 S16D1 m545 KD4 m146,59.887795,10.807295,1250.0,1.04,3) -10%...+10%
27281B1824158,Borgundvegen Sykkel,BICYCLE,Ålesund,Møre og Romsdal,E,EV136 S1D160 m963,62.464564,6.303997,66.0,0.89,2) -25%...+10%
63730V443521,ULLERUDSLETTA,VEHICLE,Frogn,Viken,F,FV152 S1D50 m605,59.669764,10.64825,13739.0,1.05,3) -10%...+10%
12167V1060414,SKAARSETH,VEHICLE,Lillehammer,Innlandet,F,FV2520 S1D1 m2147,61.131981,10.474938,3215.0,1.17,4) +10%...+25%
77685V578099,ÅSMYRA,VEHICLE,Namsos,Trøndelag,F,FV17 S4D1 m3147,64.209392,11.215688,2536.0,1.01,3) -10%...+10%
11654B1671763,Vollevann E18 Sykkel,BICYCLE,Kristiansand,Agder,E,EV18 S2D1 m177,58.165366,8.033543,555.0,0.99,3) -10%...+10%
53365V521100,VÅGSLI TUNNEL,VEHICLE,Vinje,Vestfold og Telemark,E,EV134 S17D1 m2255,59.793941,7.276422,1736.0,0.82,2) -25%...+10%
33926V2721315,Flyplassvegen Sola,VEHICLE,Sola,Rogaland,R,RV509 S1D10 m267,58.893961,5.631846,8475.0,0.66,1) <-25%
04914V319700,KROSSMOEN,VEHICLE,Eigersund,Rogaland,R,RV426 S1D1 m490,58.522177,6.09183,3537.0,1.1,3) -10%...+10%
21358V971791,DET GAMLE BADET,VEHICLE,Halden,Viken,F,FV220 S4D1 m5695,59.126576,11.387,15504.0,1.04,3) -10%...+10%
93232V444346,NORDLIVN. LORENSKOG,VEHICLE,Lørenskog,Viken,F,FV1521 S1D1 m1221,59.918833,10.946851,7818.0,0.23,1) <-25%
01581V249554,Hareidsporten,VEHICLE,Hareid,Møre og Romsdal,F,FV61 S3D1 m244,62.369979,6.026039,6664.0,1.04,3) -10%...+10%
79110V444262,HOLSTADVN. AAS,VEHICLE,Ås,Viken,F,FV152 S3D1 m2026,59.683788,10.813045,8733.0,1.04,3) -10%...+10%
18129V804739,STANGHELLE,VEHICLE,Vaksdal,Vestland,E,EV16 S6D1 m3822,60.549915,5.736571,5452.0,1.13,4) +10%...+25%
16810V2195091,JONDALSTUNNELEN,VEHICLE,Kvinnherad,Vestland,F,FV49 S4D1 m1611,60.170664,6.297961,685.0,1.07,3) -10%...+10%
17314B971599,TROLLDALEN SYKKEL,BICYCLE,Moss,Viken,F,FV316 S1D100 m406,59.449042,10.687764,82.0,1.22,4) +10%...+25%
85965V2518810,LYDERHORNSVEIEN NORD,VEHICLE,Bergen,Vestland,F,FV558 S1D1 m5414,60.36778,5.249734,6185.0,1.05,3) -10%...+10%
71798V319583,Forus ved Stv.Aftenblad påkj. mot Sandnes,VEHICLE,Sandnes,Rogaland,E,EV39 S101D1 m588 KD2 m352,58.883648,5.717813,4637.0,1.01,3) -10%...+10%
00776V930459,KJOSVEIEN,VEHICLE,Alta,Troms og Finnmark,F,FV7990 S1D1 m70,69.966863,23.375374,4183.0,1.04,3) -10%...+10%
87734V2312218,Lørentunell Østgående,VEHICLE,Oslo,Oslo,R,RV150 S1D1 m3417,59.930763,10.801885,33557.0,1.11,4) +10%...+25%
49950V319650,Førresfjordvegen,VEHICLE,Tysvær,Rogaland,E,EV134 S2D1 m9776,59.423191,5.424574,13362.0,1.07,3) -10%...+10%
03990V319811,TJØSVOLD,VEHICLE,Karmøy,Rogaland,F,FV547 S2D1 m2802,59.265913,5.194528,12961.0,0.98,3) -10%...+10%
79417V249636,Hopen Ø.,VEHICLE,Smøla,Møre og Romsdal,F,FV669 S6D1 m7369,63.458749,8.033117,1188.0,1.05,3) -10%...+10%
13104V1126310,SAMA v/x Meieriveien,VEHICLE,Harstad,Troms og Finnmark,R,RV83 S3D1 m4037,68.805704,16.523522,10549.0,1.11,4) +10%...+25%
20895V805602,DALSLEID VEST,VEHICLE,Vaksdal,Vestland,E,EV16 S7D1 m1211,60.612113,5.832682,4887.0,1.13,4) +10%...+25%
71989V885955,SVOLVÆR Ø.,VEHICLE,Vågan,Nordland,E,EV10 S14D1 m10255,68.24229,14.587079,2970.0,0.96,3) -10%...+10%
48498V1125765,HEGGELIA,VEHICLE,Målselv,Troms og Finnmark,E,EV6 S174D1 m4015,69.034885,18.506427,3846.0,1.17,4) +10%...+25%
88184V2303031,Eikeberget SV rampe,VEHICLE,Sola,Rogaland,R,RV509 S1D1 m1799 KD3 m277,58.896214,5.676137,1850.0,0.88,2) -25%...+10%
76429V2548000,ÅS NLH VOLLEBEKK,VEHICLE,Ås,Viken,F,FV152 S2D1 m695,59.664586,10.758511,11290.0,0.98,3) -10%...+10%
20680V625530,Rv 163 Brobekk Nordgående,VEHICLE,Oslo,Oslo,R,RV163 S1D1 m2551,59.932857,10.828154,9032.0,1.16,4) +10%...+25%
33731V249521,Sætre,VEHICLE,Ørsta,Møre og Romsdal,E,EV39 S38D1 m7789,62.209858,6.071825,3172.0,1.13,4) +10%...+25%
84170V249428,Lerstadvegen,VEHICLE,Ålesund,Møre og Romsdal,F,FV534 S1D1 m3264,62.469536,6.301737,16124.0,1.1,3) -10%...+10%
17482V319932,GRINDE ØST,VEHICLE,Tysvær,Rogaland,F,FV515 S1D1 m1760,59.4267,5.479602,2493.0,1.01,3) -10%...+10%
86830B971481,HABORNVEIEN SYKKEL,BICYCLE,Fredrikstad,Viken,R,RV22 S1D100 m2251,59.204244,10.9768,70.0,1.02,3) -10%...+10%
60371V1719219,SOLBERG NORD,VEHICLE,Sarpsborg,Viken,E,EV6 S3D1 m7867,59.23958,11.134942,28794.0,0.55,1) <-25%
49530V804761,TRENGEREID-OSTERØY,VEHICLE,Bergen,Vestland,E,EV16 S3D1 m4892 KD3 m110,60.422224,5.5403,213.0,1.14,4) +10%...+25%
57808V2282277,KLEVERUD,VEHICLE,Stange,Innlandet,E,EV6 S27D1 m6301,60.554701,11.250689,12997.0,1.16,4) +10%...+25%
32426V249052,Fiskarstrand,VEHICLE,Sula,Møre og Romsdal,F,FV657 S1D1 m2699,62.436184,6.2787,6925.0,1.16,4) +10%...+25%
90978V1126285,Setermoen Sør,VEHICLE,Bardu,Troms og Finnmark,E,EV6 S171D1 m7978,68.859193,18.331816,3106.0,1.19,4) +10%...+25%
76881V578085,Verdal arm Verdalsøra-Levanger,VEHICLE,Verdal,Trøndelag,E,EV6 S86D1 m3749 KD4 m150,63.786503,11.461618,3349.0,1.03,3) -10%...+10%
03476V41818,Jakobslivegen ved Skovgård,VEHICLE,Trondheim,Trøndelag,K,KV3330 S1D1 m70,63.428213,10.495449,9200.0,1.1,3) -10%...+10%
94845V521171,Ørviksletta,VEHICLE,Porsgrunn,Vestfold og Telemark,R,RV354 S1D1 m4345,59.067769,9.688556,12387.0,0.98,3) -10%...+10%
25819V2511481,Haddal,VEHICLE,Ulstein,Møre og Romsdal,F,FV653 S1D1 m30,62.291344,5.852343,3918.0,1.13,4) +10%...+25%
78492V2394249,Rotvollekra,VEHICLE,Trondheim,Trøndelag,R,RV706 S2D1 m6338,63.431275,10.480323,25648.0,1.04,3) -10%...+10%
00844V249651,Rotevatn,VEHICLE,Volda,Møre og Romsdal,F,FV5894 S1D1 m104,62.14694,6.089483,5594.0,1.03,3) -10%...+10%
27857V444273,Nessetveien,VEHICLE,Ås,Viken,F,FV156 S1D1 m9271,59.724112,10.729355,8945.0,1.05,3) -10%...+10%
12478V320582,JÅTTEN,VEHICLE,Stavanger,Rogaland,E,EV39 S100D1 m15810,58.903094,5.704821,56334.0,1.04,3) -10%...+10%
63025V885155,HERGOTTA,VEHICLE,Narvik,Nordland,E,EV6 S164D30 m13658,68.452627,17.706651,934.0,0.55,1) <-25%
83717V1126309,HARSTAD BYSKILLET (K,VEHICLE,Harstad,Troms og Finnmark,R,RV83 S3D10 m382,68.796506,16.537984,12865.0,0.58,1) <-25%
16035V971817,SARPSFOSSEN BRU,VEHICLE,Sarpsborg,Viken,F,FV118 S5D1 m710,59.279788,11.126583,21009.0,1.11,4) +10%...+25%
78019V2370741,VALLAVIK AUST,VEHICLE,Ulvik,Vestland,F,FV572 S2D1 m4570,60.489533,6.825168,704.0,1.03,3) -10%...+10%
42324V1060631,BEGNADALEN,VEHICLE,Sør-Aurdal,Innlandet,E,EV16 S41D1 m7080,60.631866,9.895112,2399.0,1.14,4) +10%...+25%
73691B1835999,Siddishallen Sykkel,BICYCLE,Stavanger,Rogaland,R,RV509 S3D100 m5217,58.954645,5.695016,665.0,0.87,2) -25%...+10%
73894V444221,JESSHEIM EV6,VEHICLE,Ullensaker,Viken,E,EV6 S22D1 m6724,60.141623,11.154226,43311.0,0.83,2) -25%...+10%
91821V930281,E6 Kirkenes X FV367 Øst,VEHICLE,Sør-Varanger,Troms og Finnmark,E,EV6 S244D1 m2397,69.725342,30.067641,1836.0,1.04,3) -10%...+10%
81009V805718,BJØRNDALSTRÆ,VEHICLE,Bergen,Vestland,F,FV574 S2D1 m3561,60.359852,5.242661,6700.0,0.95,3) -10%...+10%
17350V1885991,SANDEIDET - KNAPPETUN.DOLVIK,VEHICLE,Bergen,Vestland,F,FV557 S1D1 m4887 KD6 m40,60.332684,5.265007,2914.0,0.92,3) -10%...+10%
13606V2303025,Eikeberget SØ rampe,VEHICLE,Sola,Rogaland,R,RV509 S1D1 m1799 KD4 m41,58.896514,5.677582,1307.0,0.99,3) -10%...+10%
88125V320152,Austrått,VEHICLE,Sandnes,Rogaland,F,FV334 S3D1 m1314,58.8384,5.741526,6086.0,1.02,3) -10%...+10%
17155V2518835,Knappetun.Nord R1,VEHICLE,Bergen,Vestland,F,FV557 S1D1 m5510,60.336616,5.264413,8437.0,0.93,3) -10%...+10%
92067V21855,NEDENES,VEHICLE,Arendal,Agder,F,FV420 S4D1 m4458,58.41882,8.703218,7640.0,1.01,3) -10%...+10%
84212V805616,EIDSVÅGTUNNELEN,VEHICLE,Bergen,Vestland,E,EV39 S77D1 m1543,60.426449,5.303956,48279.0,1.0,3) -10%...+10%
64986V705274,STANGE S,VEHICLE,Stange,Innlandet,F,FV222 S2D1 m6966,60.703352,11.184286,1843.0,0.96,3) -10%...+10%
10493V249543,Hjelviktunnelen Øst,VEHICLE,Rauma,Møre og Romsdal,E,EV136 S4D1 m7455,62.614082,7.266637,1919.0,1.22,4) +10%...+25%
88187V625613,Nedre Kaldbakkvei V/ Østre Akersvei,VEHICLE,Oslo,Oslo,R,RV191 S1D1 m1405,59.940581,10.858267,16215.0,1.09,3) -10%...+10%
58941V22161,EVJE,VEHICLE,Evje og Hornnes,Agder,R,RV9 S8D1 m844,58.584787,7.801867,6542.0,1.1,3) -10%...+10%
45026B622830,Bryn Sykkel,BICYCLE,Oslo,Oslo,E,EV6 S16D115 m1226,59.90205,10.819436,213.0,1.05,3) -10%...+10%
11160V443688,NORDMOKORSET S,VEHICLE,Nannestad,Viken,F,FV176 S3D1 m471,60.249377,11.095471,2638.0,0.96,3) -10%...+10%
59306V121493,ODDERHEIA,VEHICLE,Kristiansand,Agder,F,FV496 S1D1 m5686,58.13838,8.074736,9378.0,1.05,3) -10%...+10%
01277B2094427,Bybrua vest,BICYCLE,Stavanger,Rogaland,F,FV4566 S1D100 m24,58.969188,5.747735,255.0,0.8,2) -25%...+10%
41598V1175670,FEVANG,VEHICLE,Sandefjord,Vestfold og Telemark,F,FV256 S5D1 m2313,59.194484,10.230336,4923.0,1.04,3) -10%...+10%
04211V1677432,Nye Ilsvikøra,VEHICLE,Trondheim,Trøndelag,F,FV715 S1D1 m20,63.430505,10.359554,5679.0,0.97,3) -10%...+10%
62778V805646,GULLBOTN,VEHICLE,Samnanger,Vestland,F,FV49 S12D1 m3689,60.398249,5.650308,5055.0,1.05,3) -10%...+10%
16882V1126285,BRANDVOLL NORD,VEHICLE,Bardu,Troms og Finnmark,E,EV6 S171D1 m545,68.823344,18.196025,2830.0,1.2,4) +10%...+25%
10649V121767,ÅSEMOEN,VEHICLE,Kvinesdal,Agder,F,FV42 S12D1 m22638,58.520709,6.964185,488.0,1.19,4) +10%...+25%
00805V72292,Årli,VEHICLE,Orkland,Trøndelag,F,FV700 S1D1 m80,63.170754,9.737808,2884.0,0.99,3) -10%...+10%
47166V804764,RAMPE OSTERØY TIL ARNA,VEHICLE,Bergen,Vestland,E,EV16 S3D1 m4892 KD4 m175,60.422092,5.536767,1967.0,1.07,3) -10%...+10%
08346V930598,FALAS,VEHICLE,Porsanger,Troms og Finnmark,E,EV6 S213D1 m4600,70.472588,25.045828,836.0,1.04,3) -10%...+10%
89787V605343,Slemdalsveien,VEHICLE,Oslo,Oslo,K,KV16621 S1D1 m2971,59.94942,10.699009,10843.0,1.1,3) -10%...+10%
79813V249638,Steinberget,VEHICLE,Surnadal,Møre og Romsdal,F,FV670 S2D1 m5013,62.915891,8.654822,1550.0,0.99,3) -10%...+10%
44176V444229,BÆRUM RINGERIKS 175,VEHICLE,Bærum,Viken,F,FV168 S3D1 m1945,59.912689,10.470388,4960.0,0.82,2) -25%...+10%
14664V930577,Wesselborgen,VEHICLE,Sør-Varanger,Troms og Finnmark,F,FV8122 S1D1 m179,69.721005,30.048283,4009.0,1.03,3) -10%...+10%
14051V1060202,HUNDORP BRU (GML.FV256),VEHICLE,Sør-Fron,Innlandet,F,FV2532 S6D10 m905,61.540447,9.973471,1099.0,0.99,3) -10%...+10%
42011V443823,BÆRUM HØVIKV F.RUND,VEHICLE,Bærum,Viken,F,FV1628 S2D1 m258,59.900712,10.57773,8530.0,1.05,3) -10%...+10%
41085B1688427,ØYRANE (SYKKEL),BICYCLE,Sunnfjord,Vestland,R,RV5 S14D100 m918,61.45814,5.849818,51.0,0.84,2) -25%...+10%
29852V885202,E10 Moskenes x  mot Å ,VEHICLE,Moskenes,Nordland,E,EV10 S1D1 m4772,67.902146,13.04104,1323.0,0.94,3) -10%...+10%
84803V886013,Fv82 Kjølhågen,VEHICLE,Andøy,Nordland,F,FV82 S14D1 m4402,69.271233,16.039883,1082.0,1.12,4) +10%...+25%
61760V521240,Ballestadhøgda,VEHICLE,Skien,Vestfold og Telemark,F,FV3270 S1D1 m3476,59.185966,9.643784,4559.0,1.02,3) -10%...+10%
22540V121303,PRESTEBEKKEN,VEHICLE,Kristiansand,Agder,E,EV18 S1D1 m5776,58.160525,8.016904,38091.0,0.76,2) -25%...+10%
14428V578666,Grønnøra,VEHICLE,Snåsa,Trøndelag,F,FV763 S5D1 m6690,64.176769,12.156023,516.0,1.01,3) -10%...+10%
01368V384495,STOREHAGEN BRU,VEHICLE,Sunnfjord,Vestland,R,RV5 S14D1 m121,61.451272,5.849882,10277.0,1.14,4) +10%...+25%
66163V21769,KVENNHUSBEKKEN,VEHICLE,Birkenes,Agder,R,RV41 S2D1 m8976,58.308035,8.193869,1272.0,0.98,3) -10%...+10%
64412V443607,BÆRUM HAUGER SKOLE,VEHICLE,Bærum,Viken,F,FV160 S2D1 m1773,59.911033,10.508119,9594.0,1.04,3) -10%...+10%
55153V805604,HERLAND,VEHICLE,Bergen,Vestland,E,EV16 S3D1 m4951,60.42209,5.537688,9831.0,1.09,3) -10%...+10%
07594B2621732,Røykenv v/Eidssletta sykkel,BICYCLE,Asker,Viken,F,FV167 S2D100 m2889,59.801301,10.445053,121.0,1.03,3) -10%...+10%
59628V885948,STRAND,VEHICLE,Sortland,Nordland,R,RV85 S6D1 m3551,68.703226,15.444085,5381.0,0.52,1) <-25%
99329V72503,KYRKSÆTERØRA,VEHICLE,Heim,Trøndelag,F,FV6432 S4D1 m10358,63.29263,9.083371,4099.0,0.96,3) -10%...+10%
14051V2499835,STRØM,VEHICLE,Sør-Odal,Innlandet,E,EV16 S62D1 m5238,60.245835,11.76221,10551.0,0.8,2) -25%...+10%
18632V249231,Kråkset,VEHICLE,Ålesund,Møre og Romsdal,F,FV527 S1D1 m1868,62.53668,6.472316,1875.0,1.1,3) -10%...+10%
77022V72359,OSLOVEGEN,VEHICLE,Trondheim,Trøndelag,R,RV706 S1D1 m2495,63.403862,10.387448,13102.0,1.06,3) -10%...+10%
81047V249564,Toven,VEHICLE,Molde,Møre og Romsdal,F,FV62 S4D1 m12503,62.792825,8.123151,1985.0,1.03,3) -10%...+10%
26489V521174,Vabakken,VEHICLE,Porsgrunn,Vestfold og Telemark,R,RV36 S1D1 m6005,59.139537,9.628294,11543.0,2.34,5) >+25%
67004V22180,STOA (NORD),VEHICLE,Arendal,Agder,F,FV42 S1D1 m1217,58.472427,8.711227,7244.0,1.1,3) -10%...+10%
55493V2570030,VISPERUD PÅRAMPE,VEHICLE,Lørenskog,Viken,R,RV159 S2D1 m1536 SD1 m320,59.928932,10.953357,107.0,1.06,3) -10%...+10%
18257V2078120,RAMPE VÅGSBOTN-ÅSAMYRANE,VEHICLE,Bergen,Vestland,E,EV39 S76D1 m1030 KD1 m124,60.475028,5.333224,4268.0,1.15,4) +10%...+25%
80890V625375,Rv 4 Bjerke Nordgående Avrampe,VEHICLE,Oslo,Oslo,R,RV4 S1D1 m2095 KD1 m197,59.94232,10.808963,5591.0,1.08,3) -10%...+10%
99312V930442,Polmak RGR,VEHICLE,Deatnu-Tana,Troms og Finnmark,F,FV895 S1D1 m17890,70.084759,27.971382,585.0,1.07,3) -10%...+10%
63512V705075,TRYSILFJ./INNBYGDA,VEHICLE,Trysil,Innlandet,F,FV2160 S3D1 m4524,61.311497,12.254049,3111.0,1.32,5) >+25%
69306V704961,SKOTTERUD N,VEHICLE,Eidskog,Innlandet,F,FV1988 S1D1 m3855,59.997246,12.120732,1902.0,1.04,3) -10%...+10%
24650V320633,BORE KRK.,VEHICLE,Klepp,Rogaland,F,FV510 S1D1 m3128,58.795601,5.598543,9099.0,0.97,3) -10%...+10%
33864B383732,BRULAND (SYKKEL),BICYCLE,Sunnfjord,Vestland,E,EV39 S57D400 m3493,61.443144,5.897649,57.0,0.94,3) -10%...+10%
28692V1882419,HELLERUDSLETTA,VEHICLE,Lillestrøm,Viken,F,FV22 S1D1 m3302,59.981403,10.984056,17302.0,1.04,3) -10%...+10%
29133V1201961,LUFTFARTSSENTERET,VEHICLE,Bodø,Nordland,R,RV80 S6D1 m7103,67.27595,14.414319,11957.0,1.0,3) -10%...+10%
15798V2507685,BUSKERUD.GR,VEHICLE,Asker,Viken,F,FV165 S1D1 m9841,59.790432,10.486948,9879.0,1.04,3) -10%...+10%
97174V1215671,VINSTRA SØR (FV312),VEHICLE,Nord-Fron,Innlandet,F,FV2522 S5D1 m1411,61.585602,9.801792,1936.0,1.01,3) -10%...+10%
68101V930654,Neiden Tollsted RGR,VEHICLE,Sør-Varanger,Troms og Finnmark,R,RV92 S1D1 m5749,69.701399,29.24207,518.0,1.04,3) -10%...+10%
87013V705063,ELVIS,VEHICLE,Elverum,Innlandet,F,FV2148 S1D1 m223,60.877934,11.564464,5810.0,1.05,3) -10%...+10%
37490V704612,FLISSUNDET S,VEHICLE,Åsnes,Innlandet,R,RV2 S10D1 m6734,60.607633,12.04485,4064.0,0.98,3) -10%...+10%
04513V121565,JÅBEKK,VEHICLE,Lindesnes,Agder,F,FV230 S1D1 m457,58.031968,7.507515,4107.0,1.15,4) +10%...+25%
63493V248904,Hovden,VEHICLE,Ørsta,Møre og Romsdal,E,EV39 S39D1 m5058,62.181999,6.078931,9614.0,1.13,4) +10%...+25%
93618V930601,LAKSELV SENTRUM,VEHICLE,Porsanger,Troms og Finnmark,E,EV6 S218D1 m2411,70.051293,24.967114,3601.0,1.03,3) -10%...+10%
70654V930322,Karasjok (Engholm's Husky),VEHICLE,Kàràsjohka-Karasjok,Troms og Finnmark,R,RV92 S3D1 m6520,69.449515,25.358879,549.0,1.11,4) +10%...+25%
17425V705226,SKARVEN,VEHICLE,Engerdal,Innlandet,F,FV26 S13D1 m5509,61.840481,11.992783,732.0,0.94,3) -10%...+10%
80769V2460281,Dr. Eufemias Gt. Østgående Datter,VEHICLE,Oslo,Oslo,E,EV18 S55D10 m686,59.908574,10.754458,5350.0,0.56,1) <-25%
72557V885913,Osen Værstasjon,VEHICLE,Vefsn,Nordland,E,EV6 S120D1 m1350,66.052943,13.582518,2056.0,1.45,5) >+25%
10349V444025,GAMLE RV 4 HAGAN,VEHICLE,Nittedal,Viken,F,FV1536 S1D1 m532,59.992677,10.925266,10998.0,1.05,3) -10%...+10%
91761V625485,Ljabrudiagonalen,VEHICLE,Oslo,Oslo,K,KV155 S1D1 m8153,59.840297,10.786571,5153.0,0.8,2) -25%...+10%
43417V1175565,AULI ØST,VEHICLE,Tønsberg,Vestfold og Telemark,F,FV300 S1D1 m3916,59.282007,10.380346,23849.0,1.02,3) -10%...+10%
54674V971471,SOLBERG VEST,VEHICLE,Sarpsborg,Viken,F,FV130 S2D1 m7621,59.209317,11.159726,7619.0,0.74,1) <-25%
58322V384177,SKATESTRAUMTUNNELEN,VEHICLE,Bremanger,Vestland,F,FV616 S4D1 m6102,61.875241,5.213934,407.0,1.39,5) >+25%
53771V1204217,BORGENKRYSSET PÅRAMPE,VEHICLE,Ullensaker,Viken,E,EV16 S58D1 m4117 KD4 m170,60.091898,11.212692,1270.0,1.0,3) -10%...+10%
66755V625539,Rv 163 Brobekk Nordgående Avrampe,VEHICLE,Oslo,Oslo,R,RV163 S1D1 m2479 KD1 m110,59.932099,10.828141,4630.0,1.04,3) -10%...+10%
90217V705217,RØNNINGEN Ø,VEHICLE,Elverum,Innlandet,R,RV25 S6D1 m6849,60.931323,11.673587,5003.0,1.05,3) -10%...+10%
96530V72820,Orvos,VEHICLE,Røros,Trøndelag,F,FV30 S11D1 m9304,62.627937,11.380586,2291.0,1.03,3) -10%...+10%
08879V180819,LIERSKOGEN,VEHICLE,Lier,Viken,E,EV18 S47D1 m12890,59.819146,10.336997,48986.0,1.07,3) -10%...+10%
95340V971469,FREDRIKSTAD BRU ØST,VEHICLE,Fredrikstad,Viken,R,RV110 S3D1 m6686,59.207533,10.967935,24738.0,1.11,4) +10%...+25%
40820V121304,BANEHEIA ØSTGÅENDE,VEHICLE,Kristiansand,Agder,E,EV18 S1D1 m1804,58.154001,7.995421,22106.0,1.11,4) +10%...+25%
37235B802722,KRISTIANBORGVANNET SYKKEL,BICYCLE,Bergen,Vestland,E,EV39 S78D200 m386,60.352835,5.338993,982.0,0.84,2) -25%...+10%
97410V1751020,SONGEFJELL,VEHICLE,Lillesand,Agder,E,EV18 S6D1 m1443,58.247038,8.309563,15195.0,1.1,3) -10%...+10%
61592V443890,ASKER SENTRUM FØYKA,VEHICLE,Asker,Viken,F,FV1436 S1D20 m552,59.832565,10.437359,11107.0,1.04,3) -10%...+10%
05635B971546,RYGGE RÅDHUS SYKKEL,BICYCLE,Moss,Viken,F,FV119 S2D20 m558,59.403615,10.693671,60.0,0.86,2) -25%...+10%
49611V249530,Silset,VEHICLE,Gjemnes,Møre og Romsdal,E,EV39 S21D1 m1426,62.882977,7.665262,2549.0,1.16,4) +10%...+25%
73430V1175835,FOLDVIK,VEHICLE,Larvik,Vestfold og Telemark,F,FV301 S3D1 m3450,58.99608,9.968187,2184.0,1.04,3) -10%...+10%
93228V578071,Mellom E6 og Værnes flyplass,VEHICLE,Stjørdal,Trøndelag,E,EV6 S79D1 m1217 KD3 m719,63.451479,10.914761,16644.0,0.82,2) -25%...+10%
78845V804838,AMALIE/SANDVIKEN,VEHICLE,Bergen,Vestland,E,EV39 S77D1 m3165 KD1 m193,60.41396,5.3217,6522.0,1.11,4) +10%...+25%
06970V72811,KROPPAN BRU,VEHICLE,Trondheim,Trøndelag,E,EV6 S75D1 m2632,63.391795,10.384533,49675.0,1.12,4) +10%...+25%
61850V249405,Årvågen,VEHICLE,Aure,Møre og Romsdal,F,FV6192 S2D1 m2708,63.349228,8.851595,484.0,1.14,4) +10%...+25%
35588V521384,Ambjørndalen,VEHICLE,Hjartdal,Vestfold og Telemark,E,EV134 S34D50 m2030,59.587303,8.584909,1901.0,0.17,1) <-25%
53805V444232,SOLVIK RAMSTAD,VEHICLE,Bærum,Viken,E,EV18 S53D1 m782,59.895744,10.558391,85350.0,0.74,1) <-25%
96110V1175853,PALETTEN,VEHICLE,Horten,Vestfold og Telemark,F,FV311 S5D1 m1554,59.349962,10.461225,6139.0,1.05,3) -10%...+10%
33219V320612,Øksnevad sør,VEHICLE,Klepp,Rogaland,F,FV44 S13D1 m9799,58.793096,5.662531,16379.0,1.14,4) +10%...+25%
00885V578661,Sannan,VEHICLE,Steinkjer,Trøndelag,F,FV762 S1D1 m286,64.00707,11.502188,7104.0,1.13,4) +10%...+25%
09480V72828,Oppdal rv 70,VEHICLE,Oppdal,Trøndelag,R,RV70 S1D1 m1133,62.599485,9.67399,4159.0,1.05,3) -10%...+10%
87642V971416,KIRKÅS SØR,VEHICLE,Indre Østfold,Viken,F,FV129 S1D1 m188,59.549592,11.346183,6128.0,1.03,3) -10%...+10%
33902V320184,BREIDABLIKKVEIEN,VEHICLE,Stavanger,Rogaland,F,FV4550 S1D1 m394,58.935201,5.733602,8804.0,1.2,4) +10%...+25%
37917V2055257,BORGO TUNNELEN,VEHICLE,Osterøy,Vestland,F,FV567 S3D1 m5843,60.518349,5.475564,4009.0,1.01,3) -10%...+10%
76424V22215,MOI MONER,VEHICLE,Grimstad,Agder,F,FV420 S6D1 m2780,58.369317,8.642441,6009.0,1.08,3) -10%...+10%
53450V704692,LØKKER,VEHICLE,Nord-Odal,Innlandet,F,FV181 S4D1 m5070,60.397666,11.474216,1100.0,0.87,2) -25%...+10%
92683V384118,STOREHAUG VEST,VEHICLE,Sunnfjord,Vestland,F,FV57 S19D1 m9910,61.385441,5.770687,1419.0,1.05,3) -10%...+10%
38722V2037772,Minnekrysset pårampe,VEHICLE,Eidsvoll,Viken,E,EV6 S25D1 m11361 KD2 m150,60.390481,11.21724,611.0,1.18,4) +10%...+25%
17567V180905,GULLAUG,VEHICLE,Lier,Viken,E,EV134 S46D1 m3249,59.751336,10.287576,20136.0,0.96,3) -10%...+10%
92089V885353,TUV,VEHICLE,Bodø,Nordland,F,FV812 S6D1 m4736,67.218604,14.627553,1007.0,1.1,3) -10%...+10%
07818V705239,TYNSET BRU,VEHICLE,Tynset,Innlandet,F,FV30 S20D1 m445,62.279843,10.772682,5154.0,1.03,3) -10%...+10%
63829V805140,STORETVEITVEIEN BOM,VEHICLE,Bergen,Vestland,F,FV582 S2D1 m3716,60.345379,5.347744,6312.0,1.09,3) -10%...+10%
12196V249298,Nerbøvågen,VEHICLE,Aukra,Møre og Romsdal,F,FV530 S1D1 m4324,62.810663,6.885545,2145.0,1.0,3) -10%...+10%
77294V2571508,ROÅS,VEHICLE,Nordre Follo,Viken,F,FV152 S6D1 m1657,59.736309,10.84239,10389.0,1.13,4) +10%...+25%
70603V2781358,HOV S,VEHICLE,Kongsvinger,Innlandet,E,EV16 S64D1 m1090,60.191317,12.02832,7766.0,0.88,2) -25%...+10%
46503V22163,NY BYGLAND,VEHICLE,Bygland,Agder,R,RV9 S11D1 m5105,58.828976,7.795905,1799.0,1.07,3) -10%...+10%
10236V72161,Innherredsveien ved Bakke kirke,VEHICLE,Trondheim,Trøndelag,F,FV6690 S1D1 m447,63.433039,10.410484,8810.0,1.03,3) -10%...+10%
25697V443622,SANDVIKSVEIEN,VEHICLE,Bærum,Viken,F,FV164 S1D1 m895,59.892067,10.534988,10794.0,0.7,1) <-25%
32939V578683,NÆRØYSUND,VEHICLE,Nærøysund,Trøndelag,F,FV770 S7D1 m2999,64.847625,11.242316,3253.0,0.93,3) -10%...+10%
55092V1125799,BREIVIKA,VEHICLE,Tromsø,Troms og Finnmark,E,EV8 S2D1 m207,69.677575,18.980192,23407.0,0.99,3) -10%...+10%
50074V1175825,SVINEVOLL,VEHICLE,Tønsberg,Vestfold og Telemark,F,FV35 S4D1 m3665,59.413207,10.240811,5141.0,0.96,3) -10%...+10%
40889V625215,E6 Furuset Nordgående Hovedfelt,VEHICLE,Oslo,Oslo,E,EV6 S17D1 m3093,59.935806,10.884199,41766.0,1.27,5) >+25%
09333V930400,HØYBUKTMOEN FV 887,VEHICLE,Sør-Varanger,Troms og Finnmark,E,EV6 S242D10 m54,69.71857,29.873268,1191.0,0.88,2) -25%...+10%
99483V705274,STANGE SENTRUM,VEHICLE,Stange,Innlandet,F,FV222 S2D1 m9006,60.7191,11.19356,8736.0,0.99,3) -10%...+10%
47077V121488,LUNDSBRUA BIL,VEHICLE,Kristiansand,Agder,F,FV471 S1D1 m2559,58.150597,8.006553,5665.0,1.9,5) >+25%
21778V1175852,TRÆLLEBORG,VEHICLE,Tønsberg,Vestfold og Telemark,F,FV311 S1D1 m885,59.264981,10.427641,13414.0,1.07,3) -10%...+10%
54551V72859,Åfjord,VEHICLE,Åfjord,Trøndelag,F,FV715 S11D1 m9592,63.956243,10.227202,1670.0,0.9,2) -25%...+10%
89651V2370818,BU VEST,VEHICLE,Ullensvang,Vestland,R,RV13 S32D1 m3167,60.465559,6.827034,1312.0,1.05,3) -10%...+10%
57234V2491268,Kongshavn rampe sydgående,VEHICLE,Oslo,Oslo,E,EV18 S56D1 m622 KD1 m244,59.895639,10.756877,2639.0,0.86,2) -25%...+10%
52324V704624,TUHUS V,VEHICLE,Eidskog,Innlandet,F,FV21 S14D1 m7657,59.984743,12.073332,3064.0,0.88,2) -25%...+10%
95912B1818982,Breivika sykkel,BICYCLE,Tromsø,Troms og Finnmark,E,EV8 S2D100 m29,69.676204,18.977208,171.0,0.73,1) <-25%
29810V804818,RAMPE HOP MOT SØRÅS,VEHICLE,Bergen,Vestland,E,EV39 S78D1 m6434 KD2 m175,60.326513,5.335816,3034.0,0.95,3) -10%...+10%
28965V443982,Solheimsv Lørenskog sentrum,VEHICLE,Lørenskog,Viken,F,FV1519 S2D1 m203,59.928583,10.950191,16194.0,1.28,5) >+25%
38638V249003,Skåla,VEHICLE,Molde,Møre og Romsdal,F,FV64 S5D1 m3363,62.700106,7.426131,1834.0,1.05,3) -10%...+10%
74259V384510,MÅLØYBRUA AUST,VEHICLE,Kinn,Vestland,R,RV15 S26D1 m9122,61.9264,5.135893,4698.0,1.19,4) +10%...+25%
57474V971423,BERBY,VEHICLE,Halden,Viken,F,FV102 S1D1 m3274,58.961081,11.491804,139.0,0.39,1) <-25%
34395V443402,KJELLERBRU,VEHICLE,Lillestrøm,Viken,R,RV22 S15D1 m2852,59.979173,11.004825,19690.0,1.05,3) -10%...+10%
65182V249636,Hopen V.,VEHICLE,Smøla,Møre og Romsdal,F,FV6200 S4D1 m10505,63.456378,8.008676,449.0,1.04,3) -10%...+10%
40729V578598,STAMPHUSMYRA,VEHICLE,Verdal,Trøndelag,E,EV6 S86D1 m1377,63.767913,11.458735,14567.0,1.12,4) +10%...+25%
00091V121407,OSEN,VEHICLE,Sirdal,Agder,F,FV42 S15D1 m3116,58.666931,6.673877,838.0,1.17,4) +10%...+25%
86634V2038034,Minnekrysset,VEHICLE,Eidsvoll,Viken,E,EV6 S25D1 m11510,60.390514,11.216959,11691.0,1.15,4) +10%...+25%
25585V578602,EGGETUNELLEN,VEHICLE,Steinkjer,Trøndelag,E,EV6 S90D1 m2128,64.02323,11.486983,9905.0,1.07,3) -10%...+10%
09747V705130,KUSKMOEN,VEHICLE,Tynset,Innlandet,F,FV2222 S5D1 m970,62.277403,10.800374,1724.0,1.07,3) -10%...+10%
44756V1863949,Bjørvikatunell Østgående,VEHICLE,Oslo,Oslo,E,EV18 S55D1 m7309,59.90551,10.75313,37807.0,0.9,2) -25%...+10%
15000V319707,Jernbaneveien,VEHICLE,Eigersund,Rogaland,F,FV44 S7D1 m6324,58.453448,6.002789,15016.0,1.08,3) -10%...+10%
05641V1175817,RINGDAL,VEHICLE,Larvik,Vestfold og Telemark,F,FV256 S1D1 m5241,59.116813,10.132706,3927.0,1.08,3) -10%...+10%
22501V1060178,DOKKA NORD (FV250),VEHICLE,Nordre Land,Innlandet,F,FV250 S1D1 m2025,60.844946,10.060256,2110.0,1.05,3) -10%...+10%
58526V578676,Skagakorsen mot Strandval,VEHICLE,Nærøysund,Trøndelag,F,FV769 S8D1 m5846,64.823332,11.496223,1119.0,0.86,2) -25%...+10%
45277V971781,MELLEBY,VEHICLE,Indre Østfold,Viken,E,EV18 S66D1 m457,59.545848,11.454121,6993.0,0.69,1) <-25%
98963V1719019,SANDESUND SØR,VEHICLE,Fredrikstad,Viken,E,EV6 S3D1 m11418,59.263323,11.096644,41095.0,0.71,1) <-25%
99846V2429627,Lavangsdalen v/værstasjon,VEHICLE,Balsfjord,Troms og Finnmark,E,EV8 S6D1 m2896,69.433766,19.26063,3886.0,1.09,3) -10%...+10%
32266V72271,Rogstad,VEHICLE,Midtre Gauldal,Trøndelag,F,FV30 S1D1 m3134,63.018953,10.331809,2414.0,1.0,3) -10%...+10%
27813V705193,GRUNDSET S,VEHICLE,Elverum,Innlandet,R,RV3 S4D1 m2160,60.90182,11.527589,5740.0,1.1,3) -10%...+10%
50000V1715090,HAFSTAD VEST,VEHICLE,Sunnfjord,Vestland,E,EV39 S58D1 m152,61.449001,5.869764,13370.0,1.14,4) +10%...+25%
64390V1672721,RØDBØL TUNNEL NORD,VEHICLE,Larvik,Vestfold og Telemark,E,EV18 S32D1 m4313,59.107453,10.106291,27433.0,1.04,3) -10%...+10%
77103V181318,HERSTRØM,VEHICLE,Drammen,Viken,F,FV283 S2D1 m2352,59.757941,10.06828,18277.0,1.11,4) +10%...+25%
44415V319821,HAUGESUND NORD,VEHICLE,Haugesund,Rogaland,F,FV47 S1D1 m6728,59.454186,5.265554,7003.0,1.06,3) -10%...+10%
41221V704557,ULLERN,VEHICLE,Sør-Odal,Innlandet,E,EV16 S61D1 m3907,60.216348,11.634549,8449.0,1.02,3) -10%...+10%
07088V705334,BRASKEREIDFOSS BRU,VEHICLE,Våler,Innlandet,F,FV2094 S1D1 m703,60.713461,11.783157,654.0,1.04,3) -10%...+10%
02547B1949899,Eigerøy bru (sykkel),BICYCLE,Eigersund,Rogaland,R,RV426 S2D115 m21,58.461837,5.98007,109.0,1.03,3) -10%...+10%
68385V320580,EDLANDSVANNET,VEHICLE,Gjesdal,Rogaland,E,EV39 S102D1 m9107,58.76551,5.878431,12249.0,1.15,4) +10%...+25%
42965V2045242,Orstad,VEHICLE,Klepp,Rogaland,F,FV505 S3D1 m8800,58.798313,5.726718,6137.0,1.19,4) +10%...+25%
96154V1060634,AURDAL SØR,VEHICLE,Nord-Aurdal,Innlandet,E,EV16 S36D1 m9648,60.916818,9.427688,4785.0,1.08,3) -10%...+10%
84978V249052,Langevåg,VEHICLE,Sula,Møre og Romsdal,F,FV657 S1D1 m7087,62.440638,6.214682,5141.0,1.15,4) +10%...+25%
44660V72811,Moholt ved Vegamot,VEHICLE,Trondheim,Trøndelag,E,EV6 S76D1 m3847,63.411126,10.445115,42343.0,1.11,4) +10%...+25%
09333V2677225,RAMSTAD ØST,VEHICLE,Indre Østfold,Viken,F,FV128 S4D1 m5716,59.553567,11.371616,2648.0,0.92,3) -10%...+10%
40696V1727469,FOLKVORD BRU,VEHICLE,Sandnes,Rogaland,R,RV444 S1D1 m4345,58.851046,5.702359,20024.0,1.12,4) +10%...+25%
82002V2483490,HØYDEN,VEHICLE,Moss,Viken,F,FV118 S8D1 m11899,59.418977,10.683083,17993.0,1.05,3) -10%...+10%
74706V578650,Jubergskorsen mot Tautra,VEHICLE,Frosta,Trøndelag,F,FV753 S2D1 m3754,63.583337,10.760182,1395.0,0.95,3) -10%...+10%
10662V704614,HANSTAD SØNDRE,VEHICLE,Elverum,Innlandet,R,RV2 S15D1 m425,60.858844,11.567512,5653.0,1.11,4) +10%...+25%
84064V320581,FORUS ved Stv.Aftenblad,VEHICLE,Sandnes,Rogaland,E,EV39 S101D1 m815,58.883669,5.718027,45662.0,0.7,1) <-25%
10153V1060058,ENGELANDSODDEN (GJØVIK),VEHICLE,Gjøvik,Innlandet,R,RV4 S16D1 m1288,60.805274,10.686328,12650.0,1.07,3) -10%...+10%
67742V1060674,RØYKENVIK,VEHICLE,Gran,Innlandet,F,FV34 S2D1 m3468,60.436445,10.472059,2445.0,0.97,3) -10%...+10%
01085V22215,Ny Nedenes,VEHICLE,Arendal,Agder,F,FV420 S4D1 m4997,58.415106,8.699715,8873.0,1.04,3) -10%...+10%
39282V444350,BRÅTEVEIEN,VEHICLE,Lillestrøm,Viken,F,FV1530 S1D1 m1869,59.968824,10.991489,5143.0,1.07,3) -10%...+10%
49962V704746,OTTESTAD KIRKE S,VEHICLE,Stange,Innlandet,F,FV222 S3D1 m4470,60.754099,11.155936,6480.0,0.95,3) -10%...+10%
35088V2252983,FURULUND,VEHICLE,Sandefjord,Vestfold og Telemark,E,EV18 S35D1 m7554,59.229665,10.26044,32758.0,1.06,3) -10%...+10%
01992V805682,SKODVIN,VEHICLE,Alver,Vestland,F,FV57 S3D1 m2346,60.703847,5.227274,4537.0,1.04,3) -10%...+10%
61864V885947,Kåringen Nord,VEHICLE,Lødingen,Nordland,E,EV10 S23D1 m126,68.441796,16.00709,1924.0,0.97,3) -10%...+10%
38918V704659,KIRKEBRUA,VEHICLE,Trysil,Innlandet,F,FV26 S4D10 m218,61.315942,12.256378,6478.0,1.21,4) +10%...+25%
49011V2410260,LENA (KORNSILO) FV33 HP51,VEHICLE,Østre Toten,Innlandet,F,FV33 S6D50 m556,60.67678,10.823107,3064.0,1.0,3) -10%...+10%
49336V319918,JÆRHAGEN,VEHICLE,Klepp,Rogaland,F,FV510 S1D1 m360,58.778196,5.625012,11969.0,1.08,3) -10%...+10%
58042V1060046,ROA SØR,VEHICLE,Lunner,Viken,E,EV16 S53D1 m2408,60.281306,10.643086,10216.0,0.99,3) -10%...+10%
44535V22169,ROTEMO SYD,VEHICLE,Valle,Agder,R,RV9 S17D1 m9794,59.238925,7.481688,1358.0,1.11,4) +10%...+25%
51729V521136,Straumekrysset S,VEHICLE,Drangedal,Vestfold og Telemark,F,FV38 S5D1 m10611,59.046136,9.127806,1047.0,1.03,3) -10%...+10%
89029V704648,NYBERGSUND S,VEHICLE,Trysil,Innlandet,F,FV26 S3D1 m8561,61.248653,12.345058,837.0,0.78,2) -25%...+10%
01521V249521,Ørsta Sentrum,VEHICLE,Ørsta,Møre og Romsdal,E,EV39 S39D1 m1546,62.199511,6.12638,8356.0,1.12,4) +10%...+25%
43920V121762,DALEHEFTE,VEHICLE,Vennesla,Agder,R,RV9 S3D1 m4188,58.308639,7.812262,3302.0,1.11,4) +10%...+25%
18012V444303,Årnes Runni,VEHICLE,Nes,Viken,F,FV175 S4D1 m1552,60.134365,11.484977,3747.0,0.9,2) -25%...+10%
16793V804739,STANGHELLE,VEHICLE,Vaksdal,Vestland,E,EV16 S6D1 m3947,60.550676,5.738243,5716.0,1.13,4) +10%...+25%
61841V578063,Dampsaga,VEHICLE,Steinkjer,Trøndelag,E,EV6 S90D1 m1567,64.018363,11.490334,14985.0,1.08,3) -10%...+10%
90646V1201961,R80 Olav5 v/byggmakker,VEHICLE,Bodø,Nordland,R,RV80 S6D1 m7846,67.274723,14.397438,9704.0,0.95,3) -10%...+10%
74892V1059997,DOMBÅS SØR,VEHICLE,Dovre,Innlandet,E,EV6 S53D1 m11750,62.066267,9.121324,4323.0,1.2,4) +10%...+25%
09390V384481,BRULAND,VEHICLE,Sunnfjord,Vestland,E,EV39 S57D1 m8120,61.443215,5.897747,7317.0,1.16,4) +10%...+25%
84922V443509,ÅS SENTRUM,VEHICLE,Ås,Viken,F,FV152 S2D1 m3218,59.665831,10.800475,10413.0,1.03,3) -10%...+10%
99923V578123,MURUMOEN,VEHICLE,Lierne,Trøndelag,F,FV74 S11D1 m6550,64.484385,14.024673,268.0,0.17,1) <-25%
05269V384524,KONGSNES,VEHICLE,Høyanger,Vestland,F,FV55 S18D1 m3179,61.164652,6.208521,459.0,1.05,3) -10%...+10%
40000B1846336,Nystrand sykkeltellepunkt,BICYCLE,Porsgrunn,Vestfold og Telemark,F,FV3260 S1D130 m1638,59.10765,9.700189,42.0,0.81,2) -25%...+10%
79453V885912,FUSTA BRU,VEHICLE,Vefsn,Nordland,E,EV6 S117D1 m5373,65.892323,13.264817,2298.0,1.26,5) >+25%
99657V578673,Spjutnes,VEHICLE,Namsos,Trøndelag,F,FV769 S3D1 m3970,64.549837,11.465511,815.0,1.0,3) -10%...+10%
95011V1665559,E10 Gullesfjord øst,VEHICLE,Kvæfjord,Troms og Finnmark,E,EV10 S21D1 m13712,68.52961,15.767247,523.0,1.8,5) >+25%
93392V248904,Ose,VEHICLE,Ørsta,Møre og Romsdal,E,EV39 S39D1 m2299,62.193108,6.123321,12100.0,1.1,3) -10%...+10%
02602V705157,OSMOEN N,VEHICLE,Os,Innlandet,F,FV2266 S1D1 m174,62.502172,11.178877,667.0,0.99,3) -10%...+10%
24546V1126310,Rv83 Harstad  Bergseng v/skole,VEHICLE,Harstad,Troms og Finnmark,F,FV850 S1D1 m207,68.807457,16.503721,4486.0,1.11,4) +10%...+25%
30219V705067,SKJEFSTADFOSSEN,VEHICLE,Elverum,Innlandet,F,FV2152 S1D1 m215,60.829823,11.609269,880.0,0.98,3) -10%...+10%
09194V804833,NYGÅRDSTUNNEL - SENTRUM,VEHICLE,Bergen,Vestland,E,EV39 S77D1 m7122 KD5 m20,60.38296,5.337229,5233.0,0.81,2) -25%...+10%
97552V521203,Straumekrysset øst,VEHICLE,Drangedal,Vestfold og Telemark,F,FV356 S6D1 m6610,59.046418,9.12771,1400.0,0.96,3) -10%...+10%
59215V444233,ASKER,VEHICLE,Asker,Viken,E,EV18 S48D1 m5481,59.834138,10.442252,49484.0,1.06,3) -10%...+10%
02636V1125920,SANDNESSUND BRUA,VEHICLE,Tromsø,Troms og Finnmark,F,FV862 S2D1 m610,69.683995,18.905661,16988.0,1.03,3) -10%...+10%
22136V804961,BØMLABRUA v/ BOMSTASJON,VEHICLE,Bømlo,Vestland,F,FV542 S1D1 m2070,59.736579,5.369819,3737.0,1.1,3) -10%...+10%
03294V443636,HOLMEN,VEHICLE,Asker,Viken,F,FV165 S1D1 m351,59.855252,10.484902,20681.0,1.02,3) -10%...+10%
95305V886039,KJØPSVIKVEIEN,VEHICLE,Narvik,Nordland,R,RV827 S5D1 m17384,68.285773,16.480922,356.0,0.51,1) <-25%
98682V444320,TARALDRUDVEIEN,VEHICLE,Nordre Follo,Viken,F,FV1418 S2D1 m1159,59.797305,10.839749,11034.0,1.06,3) -10%...+10%
60172V180989,BRAGERNESTUNNELEN,VEHICLE,Drammen,Viken,F,FV283 S1D1 m1648,59.750879,10.206211,16040.0,1.07,3) -10%...+10%
88492B1994962,Langesund,BICYCLE,Bamble,Vestfold og Telemark,F,FV352 S1D120 m5801,59.003374,9.739302,92.0,1.06,3) -10%...+10%
65896V704749,BRUGATA 33,VEHICLE,Hamar,Innlandet,F,FV222 S3D10 m521,60.794424,11.093949,3193.0,1.14,4) +10%...+25%
82010V1060713,KOPPERUD,VEHICLE,Gjøvik,Innlandet,F,FV2370 S4D1 m3170,60.775745,10.678215,7038.0,1.05,3) -10%...+10%
30278V1126346,Senjahopen,VEHICLE,Senja,Troms og Finnmark,F,FV862 S7D1 m11889,69.498934,17.511612,373.0,1.32,5) >+25%
42686V971784,TISTEDAL NORD,VEHICLE,Halden,Viken,F,FV21 S2D1 m920,59.12657,11.457883,2433.0,0.93,3) -10%...+10%
82969V885979,LELAND,VEHICLE,Leirfjord,Nordland,F,FV17 S42D1 m337,66.065346,12.950954,2239.0,1.05,3) -10%...+10%
45216V444012,NITELVA BRU,VEHICLE,Lillestrøm,Viken,F,FV1533 S1D1 m969,59.956968,11.026016,10121.0,1.01,3) -10%...+10%
30202V2680855,Martineåsen syd nordgående,VEHICLE,Larvik,Vestfold og Telemark,E,EV18 S31D1 m586,59.061877,9.995093,8155.0,1.11,4) +10%...+25%
08916V625376,Rv 4 Bjerke Sydgående Pårampe,VEHICLE,Oslo,Oslo,R,RV4 S1D1 m2095 KD4 m24,59.942788,10.80877,5579.0,1.08,3) -10%...+10%
68255V805644,FOSSEN BRATTE,VEHICLE,Samnanger,Vestland,F,FV49 S10D1 m5494,60.38212,5.879541,2534.0,1.04,3) -10%...+10%
15795V249597,Blikkshammaren,VEHICLE,Fjord,Møre og Romsdal,F,FV650 S1D1 m1559,62.290505,7.163705,1461.0,1.12,4) +10%...+25%
74065V180954,Golsfjellet ,VEHICLE,Gol,Viken,F,FV51 S2D1 m13054,60.809616,9.106588,684.0,1.36,5) >+25%
82442V249077,Hollingsholmen,VEHICLE,Aukra,Møre og Romsdal,F,FV662 S2D1 m7360,62.779675,6.993461,1578.0,0.98,3) -10%...+10%
90781V704682,TYNSET SENTRUM,VEHICLE,Tynset,Innlandet,F,FV30 S20D1 m1745,62.272695,10.774989,2494.0,1.07,3) -10%...+10%
08952V320223,BJERGSTED,VEHICLE,Stavanger,Rogaland,F,FV4584 S1D1 m540,58.97628,5.718001,5663.0,0.84,2) -25%...+10%
80199V121783,MJÅLAND,VEHICLE,Åseral,Agder,F,FV455 S6D1 m4042,58.505956,7.432352,780.0,1.2,4) +10%...+25%
98315V704673,GRAVBEKKLIA,VEHICLE,Folldal,Innlandet,F,FV29 S7D1 m5543,62.183767,9.719381,613.0,1.06,3) -10%...+10%
22325V625540,Rv 163 Brobekk Sydgående Pårampe,VEHICLE,Oslo,Oslo,R,RV163 S1D1 m2479 KD4 m47,59.933058,10.826961,4067.0,1.01,3) -10%...+10%
53019V1201959,Oppdøl (Vestvågøy),VEHICLE,Vestvågøy,Nordland,E,EV10 S8D1 m5452,68.185213,13.64219,4051.0,1.07,3) -10%...+10%
06273V1126310,SAMA/ Skolegata,VEHICLE,Harstad,Troms og Finnmark,R,RV83 S3D10 m1734,68.805095,16.539192,9739.0,0.37,1) <-25%
73976B249430,Nørve Sykkel,BICYCLE,Ålesund,Møre og Romsdal,F,FV536 S1D1 m4683,62.472819,6.22823,151.0,0.88,2) -25%...+10%
05550V705344,LØVBERGSMOEN,VEHICLE,Elverum,Innlandet,F,FV2126 S1D1 m504,60.90025,11.607036,1186.0,1.17,4) +10%...+25%
01660V705101,FLÅTESTØA N,VEHICLE,Åmot,Innlandet,F,FV237 S1D1 m162,61.202405,11.495458,732.0,1.12,4) +10%...+25%
41312V705204,KVIKNESKOGEN ,VEHICLE,Tynset,Innlandet,R,RV3 S24D1 m8588,62.45785,10.397959,2234.0,1.14,4) +10%...+25%
43112V320576,Hamrebakkene,VEHICLE,Lund,Rogaland,E,EV39 S110D1 m4899,58.445484,6.580261,5215.0,1.14,4) +10%...+25%
22984V971834,SLANGSVOLD,VEHICLE,Råde,Viken,F,FV279 S1D1 m2206,59.362443,10.947904,1620.0,1.01,3) -10%...+10%
85389V805037,STORAVATN (RV555 RAMPE 34),VEHICLE,Bergen,Vestland,R,RV555 S1D1 m8311 KD3 m246,60.370748,5.214036,2038.0,1.1,3) -10%...+10%
55950V72275,HALTDALEN EVENMOEN,VEHICLE,Holtålen,Trøndelag,F,FV30 S7D1 m1392,62.928547,11.127544,1209.0,1.11,4) +10%...+25%
18915V121774,SNARTEMO,VEHICLE,Hægebostad,Agder,F,FV43 S7D1 m3886,58.331999,7.208015,857.0,1.08,3) -10%...+10%
57929V705247,ØYERMOEN,VEHICLE,Kongsvinger,Innlandet,E,EV16 S68D1 m759,60.252424,12.45598,651.0,0.41,1) <-25%
43040V705210,HASLEMOSLETTA,VEHICLE,Åsnes,Innlandet,R,RV2 S11D1 m4172,60.624221,11.942521,3311.0,1.01,3) -10%...+10%
98549V1060497,NORDRUM (FV388),VEHICLE,Ringebu,Innlandet,F,FV2578 S1D1 m3941,61.550404,10.091598,932.0,1.85,5) >+25%
99229V521431,Steane N,VEHICLE,Kviteseid,Vestfold og Telemark,R,RV41 S16D1 m1927,59.281033,8.527321,786.0,1.21,4) +10%...+25%
51936V319817,KARMSUNDGT/STAVGT.,VEHICLE,Haugesund,Rogaland,F,FV47 S1D1 m1334,59.407863,5.282781,27652.0,1.07,3) -10%...+10%
